{"metadata":{"version":"2025.251231.260403","updatedAt":"2026-04-03","recordCount":3635,"source":"AreaCity-JsSpider-StatsGov","coordinateSystem":"WGS84","coverage":"China province, prefecture and county levels; excludes township and street levels"},"locations":[{"id":"11","parentId":null,"code":"110000000000","level":"province","name":"北京","fullName":"北京市","provinceName":"北京市","prefectureName":null,"path":"北京市","longitude":116.401145,"latitude":39.902776,"pinyin":"beijing","pinyinDisplay":"bei jing","initials":"bj"},{"id":"1101","parentId":"11","code":"110100000000","level":"prefecture","name":"北京","fullName":"北京市","provinceName":"北京市","prefectureName":"北京市","path":"北京市 / 北京市","longitude":116.399042,"latitude":39.903585,"pinyin":"beijing","pinyinDisplay":"bei jing","initials":"bj"},{"id":"110101","parentId":"1101","code":"110101000000","level":"county","name":"东城","fullName":"东城区","provinceName":"北京市","prefectureName":"北京市","path":"北京市 / 北京市 / 东城区","longitude":116.410094,"latitude":39.926958,"pinyin":"dongcheng","pinyinDisplay":"dong cheng","initials":"dc"},{"id":"110102","parentId":"1101","code":"110102000000","level":"county","name":"西城","fullName":"西城区","provinceName":"北京市","prefectureName":"北京市","path":"北京市 / 北京市 / 西城区","longitude":116.359637,"latitude":39.911223,"pinyin":"xicheng","pinyinDisplay":"xi cheng","initials":"xc"},{"id":"110105","parentId":"1101","code":"110105000000","level":"county","name":"朝阳","fullName":"朝阳区","provinceName":"北京市","prefectureName":"北京市","path":"北京市 / 北京市 / 朝阳区","longitude":116.43694,"latitude":39.920076,"pinyin":"chaoyang","pinyinDisplay":"chao yang","initials":"cy"},{"id":"110106","parentId":"1101","code":"110106000000","level":"county","name":"丰台","fullName":"丰台区","provinceName":"北京市","prefectureName":"北京市","path":"北京市 / 北京市 / 丰台区","longitude":116.28068,"latitude":39.857299,"pinyin":"fengtai","pinyinDisplay":"feng tai","initials":"ft"},{"id":"110107","parentId":"1101","code":"110107000000","level":"county","name":"石景山","fullName":"石景山区","provinceName":"北京市","prefectureName":"北京市","path":"北京市 / 北京市 / 石景山区","longitude":116.21696,"latitude":39.905076,"pinyin":"shijingshan","pinyinDisplay":"shi jing shan","initials":"sjs"},{"id":"110108","parentId":"1101","code":"110108000000","level":"county","name":"海淀","fullName":"海淀区","provinceName":"北京市","prefectureName":"北京市","path":"北京市 / 北京市 / 海淀区","longitude":116.291624,"latitude":39.958634,"pinyin":"haidian","pinyinDisplay":"hai dian","initials":"hd"},{"id":"110109","parentId":"1101","code":"110109000000","level":"county","name":"门头沟","fullName":"门头沟区","provinceName":"北京市","prefectureName":"北京市","path":"北京市 / 北京市 / 门头沟区","longitude":116.095341,"latitude":39.939444,"pinyin":"mentougou","pinyinDisplay":"men tou gou","initials":"mtg"},{"id":"110111","parentId":"1101","code":"110111000000","level":"county","name":"房山","fullName":"房山区","provinceName":"北京市","prefectureName":"北京市","path":"北京市 / 北京市 / 房山区","longitude":116.137192,"latitude":39.747542,"pinyin":"fangshan","pinyinDisplay":"fang shan","initials":"fs"},{"id":"110112","parentId":"1101","code":"110112000000","level":"county","name":"通州","fullName":"通州区","provinceName":"北京市","prefectureName":"北京市","path":"北京市 / 北京市 / 通州区","longitude":116.723165,"latitude":39.915184,"pinyin":"tongzhou","pinyinDisplay":"tong zhou","initials":"tz"},{"id":"110113","parentId":"1101","code":"110113000000","level":"county","name":"顺义","fullName":"顺义区","provinceName":"北京市","prefectureName":"北京市","path":"北京市 / 北京市 / 顺义区","longitude":116.655546,"latitude":40.148766,"pinyin":"shunyi","pinyinDisplay":"shun yi","initials":"sy"},{"id":"110114","parentId":"1101","code":"110114000000","level":"county","name":"昌平","fullName":"昌平区","provinceName":"北京市","prefectureName":"北京市","path":"北京市 / 北京市 / 昌平区","longitude":116.224951,"latitude":40.219707,"pinyin":"changping","pinyinDisplay":"chang ping","initials":"cp"},{"id":"110115","parentId":"1101","code":"110115000000","level":"county","name":"大兴","fullName":"大兴区","provinceName":"北京市","prefectureName":"北京市","path":"北京市 / 北京市 / 大兴区","longitude":116.335341,"latitude":39.725594,"pinyin":"daxing","pinyinDisplay":"da xing","initials":"dx"},{"id":"110116","parentId":"1101","code":"110116000000","level":"county","name":"怀柔","fullName":"怀柔区","provinceName":"北京市","prefectureName":"北京市","path":"北京市 / 北京市 / 怀柔区","longitude":116.626098,"latitude":40.315897,"pinyin":"huairou","pinyinDisplay":"huai rou","initials":"hr"},{"id":"110117","parentId":"1101","code":"110117000000","level":"county","name":"平谷","fullName":"平谷区","provinceName":"北京市","prefectureName":"北京市","path":"北京市 / 北京市 / 平谷区","longitude":117.115029,"latitude":40.139383,"pinyin":"pinggu","pinyinDisplay":"ping gu","initials":"pg"},{"id":"110118","parentId":"1101","code":"110118000000","level":"county","name":"密云","fullName":"密云区","provinceName":"北京市","prefectureName":"北京市","path":"北京市 / 北京市 / 密云区","longitude":116.837318,"latitude":40.375891,"pinyin":"miyun","pinyinDisplay":"mi yun","initials":"my"},{"id":"110119","parentId":"1101","code":"110119000000","level":"county","name":"延庆","fullName":"延庆区","provinceName":"北京市","prefectureName":"北京市","path":"北京市 / 北京市 / 延庆区","longitude":115.968495,"latitude":40.455808,"pinyin":"yanqing","pinyinDisplay":"yan qing","initials":"yq"},{"id":"12","parentId":null,"code":"120000000000","level":"province","name":"天津","fullName":"天津市","provinceName":"天津市","prefectureName":null,"path":"天津市","longitude":117.195212,"latitude":39.084312,"pinyin":"tianjin","pinyinDisplay":"tian jin","initials":"tj"},{"id":"1201","parentId":"12","code":"120100000000","level":"prefecture","name":"天津","fullName":"天津市","provinceName":"天津市","prefectureName":"天津市","path":"天津市 / 天津市","longitude":117.183861,"latitude":39.124547,"pinyin":"tianjin","pinyinDisplay":"tian jin","initials":"tj"},{"id":"120101","parentId":"1201","code":"120101000000","level":"county","name":"和平","fullName":"和平区","provinceName":"天津市","prefectureName":"天津市","path":"天津市 / 天津市 / 和平区","longitude":117.208429,"latitude":39.115877,"pinyin":"heping","pinyinDisplay":"he ping","initials":"hp"},{"id":"120102","parentId":"1201","code":"120102000000","level":"county","name":"河东","fullName":"河东区","provinceName":"天津市","prefectureName":"天津市","path":"天津市 / 天津市 / 河东区","longitude":117.24531,"latitude":39.127302,"pinyin":"hedong","pinyinDisplay":"he dong","initials":"hd"},{"id":"120103","parentId":"1201","code":"120103000000","level":"county","name":"河西","fullName":"河西区","provinceName":"天津市","prefectureName":"天津市","path":"天津市 / 天津市 / 河西区","longitude":117.217104,"latitude":39.108686,"pinyin":"hexi","pinyinDisplay":"he xi","initials":"hx"},{"id":"120104","parentId":"1201","code":"120104000000","level":"county","name":"南开","fullName":"南开区","provinceName":"天津市","prefectureName":"天津市","path":"天津市 / 天津市 / 南开区","longitude":117.144244,"latitude":39.137422,"pinyin":"nankai","pinyinDisplay":"nan kai","initials":"nk"},{"id":"120105","parentId":"1201","code":"120105000000","level":"county","name":"河北","fullName":"河北区","provinceName":"天津市","prefectureName":"天津市","path":"天津市 / 天津市 / 河北区","longitude":117.190562,"latitude":39.146967,"pinyin":"hebei","pinyinDisplay":"he bei","initials":"hb"},{"id":"120106","parentId":"1201","code":"120106000000","level":"county","name":"红桥","fullName":"红桥区","provinceName":"天津市","prefectureName":"天津市","path":"天津市 / 天津市 / 红桥区","longitude":117.14517,"latitude":39.166204,"pinyin":"hongqiao","pinyinDisplay":"hong qiao","initials":"hq"},{"id":"120110","parentId":"1201","code":"120110000000","level":"county","name":"东丽","fullName":"东丽区","provinceName":"天津市","prefectureName":"天津市","path":"天津市 / 天津市 / 东丽区","longitude":117.307186,"latitude":39.085754,"pinyin":"dongli","pinyinDisplay":"dong li","initials":"dl"},{"id":"120111","parentId":"1201","code":"120111000000","level":"county","name":"西青","fullName":"西青区","provinceName":"天津市","prefectureName":"天津市","path":"天津市 / 天津市 / 西青区","longitude":117.002821,"latitude":39.140789,"pinyin":"xiqing","pinyinDisplay":"xi qing","initials":"xq"},{"id":"120112","parentId":"1201","code":"120112000000","level":"county","name":"津南","fullName":"津南区","provinceName":"天津市","prefectureName":"天津市","path":"天津市 / 天津市 / 津南区","longitude":117.350205,"latitude":38.935949,"pinyin":"jinnan","pinyinDisplay":"jin nan","initials":"jn"},{"id":"120113","parentId":"1201","code":"120113000000","level":"county","name":"北辰","fullName":"北辰区","provinceName":"天津市","prefectureName":"天津市","path":"天津市 / 天津市 / 北辰区","longitude":117.129187,"latitude":39.223435,"pinyin":"beichen","pinyinDisplay":"bei chen","initials":"bc"},{"id":"120114","parentId":"1201","code":"120114000000","level":"county","name":"武清","fullName":"武清区","provinceName":"天津市","prefectureName":"天津市","path":"天津市 / 天津市 / 武清区","longitude":117.038211,"latitude":39.382861,"pinyin":"wuqing","pinyinDisplay":"wu qing","initials":"wq"},{"id":"120115","parentId":"1201","code":"120115000000","level":"county","name":"宝坻","fullName":"宝坻区","provinceName":"天津市","prefectureName":"天津市","path":"天津市 / 天津市 / 宝坻区","longitude":117.303296,"latitude":39.715769,"pinyin":"baodi","pinyinDisplay":"bao di","initials":"bd"},{"id":"120116","parentId":"1201","code":"120116000000","level":"county","name":"滨海新区","fullName":"滨海新区","provinceName":"天津市","prefectureName":"天津市","path":"天津市 / 天津市 / 滨海新区","longitude":117.690157,"latitude":39.016925,"pinyin":"binhaixinqu","pinyinDisplay":"bin hai xin qu","initials":"bhxq"},{"id":"120117","parentId":"1201","code":"120117000000","level":"county","name":"宁河","fullName":"宁河区","provinceName":"天津市","prefectureName":"天津市","path":"天津市 / 天津市 / 宁河区","longitude":117.820478,"latitude":39.328724,"pinyin":"ninghe","pinyinDisplay":"ning he","initials":"nh"},{"id":"120118","parentId":"1201","code":"120118000000","level":"county","name":"静海","fullName":"静海区","provinceName":"天津市","prefectureName":"天津市","path":"天津市 / 天津市 / 静海区","longitude":116.969473,"latitude":38.946969,"pinyin":"jinghai","pinyinDisplay":"jing hai","initials":"jh"},{"id":"120119","parentId":"1201","code":"120119000000","level":"county","name":"蓟州","fullName":"蓟州区","provinceName":"天津市","prefectureName":"天津市","path":"天津市 / 天津市 / 蓟州区","longitude":117.401743,"latitude":40.045112,"pinyin":"jizhou","pinyinDisplay":"ji zhou","initials":"jz"},{"id":"13","parentId":null,"code":"130000000000","level":"province","name":"河北","fullName":"河北省","provinceName":"河北省","prefectureName":null,"path":"河北省","longitude":114.524486,"latitude":38.03713,"pinyin":"hebei","pinyinDisplay":"he bei","initials":"hb"},{"id":"1301","parentId":"13","code":"130100000000","level":"prefecture","name":"石家庄","fullName":"石家庄市","provinceName":"河北省","prefectureName":"石家庄市","path":"河北省 / 石家庄市","longitude":114.509003,"latitude":38.041388,"pinyin":"shijiazhuang","pinyinDisplay":"shi jia zhuang","initials":"sjz"},{"id":"130102","parentId":"1301","code":"130102000000","level":"county","name":"长安","fullName":"长安区","provinceName":"河北省","prefectureName":"石家庄市","path":"河北省 / 石家庄市 / 长安区","longitude":114.533072,"latitude":38.036264,"pinyin":"changan","pinyinDisplay":"chang an","initials":"ca"},{"id":"130104","parentId":"1301","code":"130104000000","level":"county","name":"桥西","fullName":"桥西区","provinceName":"河北省","prefectureName":"石家庄市","path":"河北省 / 石家庄市 / 桥西区","longitude":114.443818,"latitude":38.024445,"pinyin":"qiaoxi","pinyinDisplay":"qiao xi","initials":"qx"},{"id":"130105","parentId":"1301","code":"130105000000","level":"county","name":"新华","fullName":"新华区","provinceName":"河北省","prefectureName":"石家庄市","path":"河北省 / 石家庄市 / 新华区","longitude":114.457725,"latitude":38.049986,"pinyin":"xinhua","pinyinDisplay":"xin hua","initials":"xh"},{"id":"130107","parentId":"1301","code":"130107000000","level":"county","name":"井陉矿区","fullName":"井陉矿区","provinceName":"河北省","prefectureName":"石家庄市","path":"河北省 / 石家庄市 / 井陉矿区","longitude":114.055744,"latitude":38.06464,"pinyin":"jingxingkuangqu","pinyinDisplay":"jing xing kuang qu","initials":"jxkq"},{"id":"130108","parentId":"1301","code":"130108000000","level":"county","name":"裕华","fullName":"裕华区","provinceName":"河北省","prefectureName":"石家庄市","path":"河北省 / 石家庄市 / 裕华区","longitude":114.525694,"latitude":38.006422,"pinyin":"yuhua","pinyinDisplay":"yu hua","initials":"yh"},{"id":"130109","parentId":"1301","code":"130109000000","level":"county","name":"藁城","fullName":"藁城区","provinceName":"河北省","prefectureName":"石家庄市","path":"河北省 / 石家庄市 / 藁城区","longitude":114.840722,"latitude":38.021631,"pinyin":"gaocheng","pinyinDisplay":"gao cheng","initials":"gc"},{"id":"130110","parentId":"1301","code":"130110000000","level":"county","name":"鹿泉","fullName":"鹿泉区","provinceName":"河北省","prefectureName":"石家庄市","path":"河北省 / 石家庄市 / 鹿泉区","longitude":114.307343,"latitude":38.085819,"pinyin":"luquan","pinyinDisplay":"lu quan","initials":"lq"},{"id":"130111","parentId":"1301","code":"130111000000","level":"county","name":"栾城","fullName":"栾城区","provinceName":"河北省","prefectureName":"石家庄市","path":"河北省 / 石家庄市 / 栾城区","longitude":114.642111,"latitude":37.900357,"pinyin":"luancheng","pinyinDisplay":"luan cheng","initials":"lc"},{"id":"130121","parentId":"1301","code":"130121000000","level":"county","name":"井陉","fullName":"井陉县","provinceName":"河北省","prefectureName":"石家庄市","path":"河北省 / 石家庄市 / 井陉县","longitude":114.139245,"latitude":38.031567,"pinyin":"jingxing","pinyinDisplay":"jing xing","initials":"jx"},{"id":"130123","parentId":"1301","code":"130123000000","level":"county","name":"正定","fullName":"正定县","provinceName":"河北省","prefectureName":"石家庄市","path":"河北省 / 石家庄市 / 正定县","longitude":114.564616,"latitude":38.146514,"pinyin":"zhengding","pinyinDisplay":"zheng ding","initials":"zd"},{"id":"130125","parentId":"1301","code":"130125000000","level":"county","name":"行唐","fullName":"行唐县","provinceName":"河北省","prefectureName":"石家庄市","path":"河北省 / 石家庄市 / 行唐县","longitude":114.547158,"latitude":38.437049,"pinyin":"xingtang","pinyinDisplay":"xing tang","initials":"xt"},{"id":"130126","parentId":"1301","code":"130126000000","level":"county","name":"灵寿","fullName":"灵寿县","provinceName":"河北省","prefectureName":"石家庄市","path":"河北省 / 石家庄市 / 灵寿县","longitude":114.376671,"latitude":38.30711,"pinyin":"lingshou","pinyinDisplay":"ling shou","initials":"ls"},{"id":"130127","parentId":"1301","code":"130127000000","level":"county","name":"高邑","fullName":"高邑县","provinceName":"河北省","prefectureName":"石家庄市","path":"河北省 / 石家庄市 / 高邑县","longitude":114.605929,"latitude":37.615368,"pinyin":"gaoyi","pinyinDisplay":"gao yi","initials":"gy"},{"id":"130128","parentId":"1301","code":"130128000000","level":"county","name":"深泽","fullName":"深泽县","provinceName":"河北省","prefectureName":"石家庄市","path":"河北省 / 石家庄市 / 深泽县","longitude":115.194745,"latitude":38.183879,"pinyin":"shenze","pinyinDisplay":"shen ze","initials":"sz"},{"id":"130129","parentId":"1301","code":"130129000000","level":"county","name":"赞皇","fullName":"赞皇县","provinceName":"河北省","prefectureName":"石家庄市","path":"河北省 / 石家庄市 / 赞皇县","longitude":114.379847,"latitude":37.665655,"pinyin":"zanhuang","pinyinDisplay":"zan huang","initials":"zh"},{"id":"130130","parentId":"1301","code":"130130000000","level":"county","name":"无极","fullName":"无极县","provinceName":"河北省","prefectureName":"石家庄市","path":"河北省 / 石家庄市 / 无极县","longitude":114.970301,"latitude":38.178275,"pinyin":"wuji","pinyinDisplay":"wu ji","initials":"wj"},{"id":"130131","parentId":"1301","code":"130131000000","level":"county","name":"平山","fullName":"平山县","provinceName":"河北省","prefectureName":"石家庄市","path":"河北省 / 石家庄市 / 平山县","longitude":114.179681,"latitude":38.259601,"pinyin":"pingshan","pinyinDisplay":"ping shan","initials":"ps"},{"id":"130132","parentId":"1301","code":"130132000000","level":"county","name":"元氏","fullName":"元氏县","provinceName":"河北省","prefectureName":"石家庄市","path":"河北省 / 石家庄市 / 元氏县","longitude":114.519607,"latitude":37.766694,"pinyin":"yuanshi","pinyinDisplay":"yuan shi","initials":"ys"},{"id":"130133","parentId":"1301","code":"130133000000","level":"county","name":"赵县","fullName":"赵县","provinceName":"河北省","prefectureName":"石家庄市","path":"河北省 / 石家庄市 / 赵县","longitude":114.769965,"latitude":37.756228,"pinyin":"zhaoxian","pinyinDisplay":"zhao xian","initials":"zx"},{"id":"130181","parentId":"1301","code":"130181000000","level":"county","name":"辛集","fullName":"辛集市","provinceName":"河北省","prefectureName":"石家庄市","path":"河北省 / 石家庄市 / 辛集市","longitude":115.211536,"latitude":37.942521,"pinyin":"xinji","pinyinDisplay":"xin ji","initials":"xj"},{"id":"130183","parentId":"1301","code":"130183000000","level":"county","name":"晋州","fullName":"晋州市","provinceName":"河北省","prefectureName":"石家庄市","path":"河北省 / 石家庄市 / 晋州市","longitude":115.037946,"latitude":38.033139,"pinyin":"jinzhou","pinyinDisplay":"jin zhou","initials":"jz"},{"id":"130184","parentId":"1301","code":"130184000000","level":"county","name":"新乐","fullName":"新乐市","provinceName":"河北省","prefectureName":"石家庄市","path":"河北省 / 石家庄市 / 新乐市","longitude":114.677803,"latitude":38.343398,"pinyin":"xinle","pinyinDisplay":"xin le","initials":"xl"},{"id":"1302","parentId":"13","code":"130200000000","level":"prefecture","name":"唐山","fullName":"唐山市","provinceName":"河北省","prefectureName":"唐山市","path":"河北省 / 唐山市","longitude":118.173871,"latitude":39.629372,"pinyin":"tangshan","pinyinDisplay":"tang shan","initials":"ts"},{"id":"130202","parentId":"1302","code":"130202000000","level":"county","name":"路南","fullName":"路南区","provinceName":"河北省","prefectureName":"唐山市","path":"河北省 / 唐山市 / 路南区","longitude":118.147995,"latitude":39.623634,"pinyin":"lunan","pinyinDisplay":"lu nan","initials":"ln"},{"id":"130203","parentId":"1302","code":"130203000000","level":"county","name":"路北","fullName":"路北区","provinceName":"河北省","prefectureName":"唐山市","path":"河北省 / 唐山市 / 路北区","longitude":118.194865,"latitude":39.623808,"pinyin":"lubei","pinyinDisplay":"lu bei","initials":"lb"},{"id":"130204","parentId":"1302","code":"130204000000","level":"county","name":"古冶","fullName":"古冶区","provinceName":"河北省","prefectureName":"唐山市","path":"河北省 / 唐山市 / 古冶区","longitude":118.440868,"latitude":39.732528,"pinyin":"guye","pinyinDisplay":"gu ye","initials":"gy"},{"id":"130205","parentId":"1302","code":"130205000000","level":"county","name":"开平","fullName":"开平区","provinceName":"河北省","prefectureName":"唐山市","path":"河北省 / 唐山市 / 开平区","longitude":118.2561,"latitude":39.670392,"pinyin":"kaiping","pinyinDisplay":"kai ping","initials":"kp"},{"id":"130207","parentId":"1302","code":"130207000000","level":"county","name":"丰南","fullName":"丰南区","provinceName":"河北省","prefectureName":"唐山市","path":"河北省 / 唐山市 / 丰南区","longitude":118.078716,"latitude":39.574635,"pinyin":"fengnan","pinyinDisplay":"feng nan","initials":"fn"},{"id":"130208","parentId":"1302","code":"130208000000","level":"county","name":"丰润","fullName":"丰润区","provinceName":"河北省","prefectureName":"唐山市","path":"河北省 / 唐山市 / 丰润区","longitude":118.156069,"latitude":39.831552,"pinyin":"fengrun","pinyinDisplay":"feng run","initials":"fr"},{"id":"130209","parentId":"1302","code":"130209000000","level":"county","name":"曹妃甸","fullName":"曹妃甸区","provinceName":"河北省","prefectureName":"唐山市","path":"河北省 / 唐山市 / 曹妃甸区","longitude":118.45403,"latitude":39.272315,"pinyin":"caofeidian","pinyinDisplay":"cao fei dian","initials":"cfd"},{"id":"130224","parentId":"1302","code":"130224000000","level":"county","name":"滦南","fullName":"滦南县","provinceName":"河北省","prefectureName":"唐山市","path":"河北省 / 唐山市 / 滦南县","longitude":118.677694,"latitude":39.519132,"pinyin":"luannan","pinyinDisplay":"luan nan","initials":"ln"},{"id":"130225","parentId":"1302","code":"130225000000","level":"county","name":"乐亭","fullName":"乐亭县","provinceName":"河北省","prefectureName":"唐山市","path":"河北省 / 唐山市 / 乐亭县","longitude":118.906647,"latitude":39.424747,"pinyin":"laoting","pinyinDisplay":"lao ting","initials":"lt"},{"id":"130227","parentId":"1302","code":"130227000000","level":"county","name":"迁西","fullName":"迁西县","provinceName":"河北省","prefectureName":"唐山市","path":"河北省 / 唐山市 / 迁西县","longitude":118.308399,"latitude":40.140141,"pinyin":"qianxi","pinyinDisplay":"qian xi","initials":"qx"},{"id":"130229","parentId":"1302","code":"130229000000","level":"county","name":"玉田","fullName":"玉田县","provinceName":"河北省","prefectureName":"唐山市","path":"河北省 / 唐山市 / 玉田县","longitude":117.73178,"latitude":39.90058,"pinyin":"yutian","pinyinDisplay":"yu tian","initials":"yt"},{"id":"130281","parentId":"1302","code":"130281000000","level":"county","name":"遵化","fullName":"遵化市","provinceName":"河北省","prefectureName":"唐山市","path":"河北省 / 唐山市 / 遵化市","longitude":117.959644,"latitude":40.187943,"pinyin":"zunhua","pinyinDisplay":"zun hua","initials":"zh"},{"id":"130283","parentId":"1302","code":"130283000000","level":"county","name":"迁安","fullName":"迁安市","provinceName":"河北省","prefectureName":"唐山市","path":"河北省 / 唐山市 / 迁安市","longitude":118.694985,"latitude":39.997628,"pinyin":"qianan","pinyinDisplay":"qian an","initials":"qa"},{"id":"130284","parentId":"1302","code":"130284000000","level":"county","name":"滦州","fullName":"滦州市","provinceName":"河北省","prefectureName":"唐山市","path":"河北省 / 唐山市 / 滦州市","longitude":118.697003,"latitude":39.739743,"pinyin":"luanzhou","pinyinDisplay":"luan zhou","initials":"lz"},{"id":"1303","parentId":"13","code":"130300000000","level":"prefecture","name":"秦皇岛","fullName":"秦皇岛市","provinceName":"河北省","prefectureName":"秦皇岛市","path":"河北省 / 秦皇岛市","longitude":119.514248,"latitude":39.887014,"pinyin":"qinhuangdao","pinyinDisplay":"qin huang dao","initials":"qhd"},{"id":"130302","parentId":"1303","code":"130302000000","level":"county","name":"海港","fullName":"海港区","provinceName":"河北省","prefectureName":"秦皇岛市","path":"河北省 / 秦皇岛市 / 海港区","longitude":119.559137,"latitude":39.946428,"pinyin":"haigang","pinyinDisplay":"hai gang","initials":"hg"},{"id":"130303","parentId":"1303","code":"130303000000","level":"county","name":"山海关","fullName":"山海关区","provinceName":"河北省","prefectureName":"秦皇岛市","path":"河北省 / 秦皇岛市 / 山海关区","longitude":119.769317,"latitude":39.977595,"pinyin":"shanhaiguan","pinyinDisplay":"shan hai guan","initials":"shg"},{"id":"130304","parentId":"1303","code":"130304000000","level":"county","name":"北戴河","fullName":"北戴河区","provinceName":"河北省","prefectureName":"秦皇岛市","path":"河北省 / 秦皇岛市 / 北戴河区","longitude":119.47837,"latitude":39.833581,"pinyin":"beidaihe","pinyinDisplay":"bei dai he","initials":"bdh"},{"id":"130306","parentId":"1303","code":"130306000000","level":"county","name":"抚宁","fullName":"抚宁区","provinceName":"河北省","prefectureName":"秦皇岛市","path":"河北省 / 秦皇岛市 / 抚宁区","longitude":119.238724,"latitude":39.87497,"pinyin":"funing","pinyinDisplay":"fu ning","initials":"fn"},{"id":"130321","parentId":"1303","code":"130321000000","level":"county","name":"青龙","fullName":"青龙满族自治县","provinceName":"河北省","prefectureName":"秦皇岛市","path":"河北省 / 秦皇岛市 / 青龙满族自治县","longitude":118.943856,"latitude":40.406258,"pinyin":"qinglong","pinyinDisplay":"qing long","initials":"ql"},{"id":"130322","parentId":"1303","code":"130322000000","level":"county","name":"昌黎","fullName":"昌黎县","provinceName":"河北省","prefectureName":"秦皇岛市","path":"河北省 / 秦皇岛市 / 昌黎县","longitude":119.193688,"latitude":39.698369,"pinyin":"changli","pinyinDisplay":"chang li","initials":"cl"},{"id":"130324","parentId":"1303","code":"130324000000","level":"county","name":"卢龙","fullName":"卢龙县","provinceName":"河北省","prefectureName":"秦皇岛市","path":"河北省 / 秦皇岛市 / 卢龙县","longitude":118.886073,"latitude":39.891472,"pinyin":"lulong","pinyinDisplay":"lu long","initials":"ll"},{"id":"1304","parentId":"13","code":"130400000000","level":"prefecture","name":"邯郸","fullName":"邯郸市","provinceName":"河北省","prefectureName":"邯郸市","path":"河北省 / 邯郸市","longitude":114.533423,"latitude":36.62577,"pinyin":"handan","pinyinDisplay":"han dan","initials":"hd"},{"id":"130402","parentId":"1304","code":"130402000000","level":"county","name":"邯山","fullName":"邯山区","provinceName":"河北省","prefectureName":"邯郸市","path":"河北省 / 邯郸市 / 邯山区","longitude":114.525311,"latitude":36.594489,"pinyin":"hanshan","pinyinDisplay":"han shan","initials":"hs"},{"id":"130403","parentId":"1304","code":"130403000000","level":"county","name":"丛台","fullName":"丛台区","provinceName":"河北省","prefectureName":"邯郸市","path":"河北省 / 邯郸市 / 丛台区","longitude":114.486969,"latitude":36.636218,"pinyin":"congtai","pinyinDisplay":"cong tai","initials":"ct"},{"id":"130404","parentId":"1304","code":"130404000000","level":"county","name":"复兴","fullName":"复兴区","provinceName":"河北省","prefectureName":"邯郸市","path":"河北省 / 邯郸市 / 复兴区","longitude":114.456559,"latitude":36.638578,"pinyin":"fuxing","pinyinDisplay":"fu xing","initials":"fx"},{"id":"130406","parentId":"1304","code":"130406000000","level":"county","name":"峰峰矿区","fullName":"峰峰矿区","provinceName":"河北省","prefectureName":"邯郸市","path":"河北省 / 邯郸市 / 峰峰矿区","longitude":114.206529,"latitude":36.419192,"pinyin":"fengfengkuangqu","pinyinDisplay":"feng feng kuang qu","initials":"ffkq"},{"id":"130407","parentId":"1304","code":"130407000000","level":"county","name":"肥乡","fullName":"肥乡区","provinceName":"河北省","prefectureName":"邯郸市","path":"河北省 / 邯郸市 / 肥乡区","longitude":114.794421,"latitude":36.548437,"pinyin":"feixiang","pinyinDisplay":"fei xiang","initials":"fx"},{"id":"130408","parentId":"1304","code":"130408000000","level":"county","name":"永年","fullName":"永年区","provinceName":"河北省","prefectureName":"邯郸市","path":"河北省 / 邯郸市 / 永年区","longitude":114.530878,"latitude":36.741723,"pinyin":"yongnian","pinyinDisplay":"yong nian","initials":"yn"},{"id":"130423","parentId":"1304","code":"130423000000","level":"county","name":"临漳","fullName":"临漳县","provinceName":"河北省","prefectureName":"邯郸市","path":"河北省 / 邯郸市 / 临漳县","longitude":114.579919,"latitude":36.322632,"pinyin":"linzhang","pinyinDisplay":"lin zhang","initials":"lz"},{"id":"130424","parentId":"1304","code":"130424000000","level":"county","name":"成安","fullName":"成安县","provinceName":"河北省","prefectureName":"邯郸市","path":"河北省 / 邯郸市 / 成安县","longitude":114.664394,"latitude":36.445328,"pinyin":"chengan","pinyinDisplay":"cheng an","initials":"ca"},{"id":"130425","parentId":"1304","code":"130425000000","level":"county","name":"大名","fullName":"大名县","provinceName":"河北省","prefectureName":"邯郸市","path":"河北省 / 邯郸市 / 大名县","longitude":115.141948,"latitude":36.286215,"pinyin":"daming","pinyinDisplay":"da ming","initials":"dm"},{"id":"130426","parentId":"1304","code":"130426000000","level":"county","name":"涉县","fullName":"涉县","provinceName":"河北省","prefectureName":"邯郸市","path":"河北省 / 邯郸市 / 涉县","longitude":113.685807,"latitude":36.58598,"pinyin":"shexian","pinyinDisplay":"she xian","initials":"sx"},{"id":"130427","parentId":"1304","code":"130427000000","level":"county","name":"磁县","fullName":"磁县","provinceName":"河北省","prefectureName":"邯郸市","path":"河北省 / 邯郸市 / 磁县","longitude":114.367853,"latitude":36.374834,"pinyin":"cixian","pinyinDisplay":"ci xian","initials":"cx"},{"id":"130430","parentId":"1304","code":"130430000000","level":"county","name":"邱县","fullName":"邱县","provinceName":"河北省","prefectureName":"邯郸市","path":"河北省 / 邯郸市 / 邱县","longitude":115.19406,"latitude":36.811417,"pinyin":"qiuxian","pinyinDisplay":"qiu xian","initials":"qx"},{"id":"130431","parentId":"1304","code":"130431000000","level":"county","name":"鸡泽","fullName":"鸡泽县","provinceName":"河北省","prefectureName":"邯郸市","path":"河北省 / 邯郸市 / 鸡泽县","longitude":114.884294,"latitude":36.91132,"pinyin":"jize","pinyinDisplay":"ji ze","initials":"jz"},{"id":"130432","parentId":"1304","code":"130432000000","level":"county","name":"广平","fullName":"广平县","provinceName":"河北省","prefectureName":"邯郸市","path":"河北省 / 邯郸市 / 广平县","longitude":114.915563,"latitude":36.476784,"pinyin":"guangping","pinyinDisplay":"guang ping","initials":"gp"},{"id":"130433","parentId":"1304","code":"130433000000","level":"county","name":"馆陶","fullName":"馆陶县","provinceName":"河北省","prefectureName":"邯郸市","path":"河北省 / 邯郸市 / 馆陶县","longitude":115.275878,"latitude":36.548115,"pinyin":"guantao","pinyinDisplay":"guan tao","initials":"gt"},{"id":"130434","parentId":"1304","code":"130434000000","level":"county","name":"魏县","fullName":"魏县","provinceName":"河北省","prefectureName":"邯郸市","path":"河北省 / 邯郸市 / 魏县","longitude":114.933576,"latitude":36.359342,"pinyin":"weixian","pinyinDisplay":"wei xian","initials":"wx"},{"id":"130435","parentId":"1304","code":"130435000000","level":"county","name":"曲周","fullName":"曲周县","provinceName":"河北省","prefectureName":"邯郸市","path":"河北省 / 邯郸市 / 曲周县","longitude":114.951816,"latitude":36.766179,"pinyin":"quzhou","pinyinDisplay":"qu zhou","initials":"qz"},{"id":"130481","parentId":"1304","code":"130481000000","level":"county","name":"武安","fullName":"武安市","provinceName":"河北省","prefectureName":"邯郸市","path":"河北省 / 邯郸市 / 武安市","longitude":114.19759,"latitude":36.697326,"pinyin":"wuan","pinyinDisplay":"wu an","initials":"wa"},{"id":"1305","parentId":"13","code":"130500000000","level":"prefecture","name":"邢台","fullName":"邢台市","provinceName":"河北省","prefectureName":"邢台市","path":"河北省 / 邢台市","longitude":114.491486,"latitude":37.059735,"pinyin":"xingtai","pinyinDisplay":"xing tai","initials":"xt"},{"id":"130502","parentId":"1305","code":"130502000000","level":"county","name":"襄都","fullName":"襄都区","provinceName":"河北省","prefectureName":"邢台市","path":"河北省 / 邢台市 / 襄都区","longitude":114.501549,"latitude":37.070844,"pinyin":"xiangdu","pinyinDisplay":"xiang du","initials":"xd"},{"id":"130503","parentId":"1305","code":"130503000000","level":"county","name":"信都","fullName":"信都区","provinceName":"河北省","prefectureName":"邢台市","path":"河北省 / 邢台市 / 信都区","longitude":114.462176,"latitude":37.0932,"pinyin":"xindu","pinyinDisplay":"xin du","initials":"xd"},{"id":"130505","parentId":"1305","code":"130505000000","level":"county","name":"任泽","fullName":"任泽区","provinceName":"河北省","prefectureName":"邢台市","path":"河北省 / 邢台市 / 任泽区","longitude":114.665563,"latitude":37.121524,"pinyin":"renze","pinyinDisplay":"ren ze","initials":"rz"},{"id":"130506","parentId":"1305","code":"130506000000","level":"county","name":"南和","fullName":"南和区","provinceName":"河北省","prefectureName":"邢台市","path":"河北省 / 邢台市 / 南和区","longitude":114.677892,"latitude":37.005248,"pinyin":"nanhe","pinyinDisplay":"nan he","initials":"nh"},{"id":"130522","parentId":"1305","code":"130522000000","level":"county","name":"临城","fullName":"临城县","provinceName":"河北省","prefectureName":"邢台市","path":"河北省 / 邢台市 / 临城县","longitude":114.492679,"latitude":37.443824,"pinyin":"lincheng","pinyinDisplay":"lin cheng","initials":"lc"},{"id":"130523","parentId":"1305","code":"130523000000","level":"county","name":"内丘","fullName":"内丘县","provinceName":"河北省","prefectureName":"邢台市","path":"河北省 / 邢台市 / 内丘县","longitude":114.506327,"latitude":37.287027,"pinyin":"neiqiu","pinyinDisplay":"nei qiu","initials":"nq"},{"id":"130524","parentId":"1305","code":"130524000000","level":"county","name":"柏乡","fullName":"柏乡县","provinceName":"河北省","prefectureName":"邢台市","path":"河北省 / 邢台市 / 柏乡县","longitude":114.687582,"latitude":37.482236,"pinyin":"baixiang","pinyinDisplay":"bai xiang","initials":"bx"},{"id":"130525","parentId":"1305","code":"130525000000","level":"county","name":"隆尧","fullName":"隆尧县","provinceName":"河北省","prefectureName":"邢台市","path":"河北省 / 邢台市 / 隆尧县","longitude":114.7646,"latitude":37.350583,"pinyin":"longyao","pinyinDisplay":"long yao","initials":"ly"},{"id":"130528","parentId":"1305","code":"130528000000","level":"county","name":"宁晋","fullName":"宁晋县","provinceName":"河北省","prefectureName":"邢台市","path":"河北省 / 邢台市 / 宁晋县","longitude":114.934226,"latitude":37.623952,"pinyin":"ningjin","pinyinDisplay":"ning jin","initials":"nj"},{"id":"130529","parentId":"1305","code":"130529000000","level":"county","name":"巨鹿","fullName":"巨鹿县","provinceName":"河北省","prefectureName":"邢台市","path":"河北省 / 邢台市 / 巨鹿县","longitude":115.031803,"latitude":37.220588,"pinyin":"julu","pinyinDisplay":"ju lu","initials":"jl"},{"id":"130530","parentId":"1305","code":"130530000000","level":"county","name":"新河","fullName":"新河县","provinceName":"河北省","prefectureName":"邢台市","path":"河北省 / 邢台市 / 新河县","longitude":115.244983,"latitude":37.520172,"pinyin":"xinhe","pinyinDisplay":"xin he","initials":"xh"},{"id":"130531","parentId":"1305","code":"130531000000","level":"county","name":"广宗","fullName":"广宗县","provinceName":"河北省","prefectureName":"邢台市","path":"河北省 / 邢台市 / 广宗县","longitude":115.136631,"latitude":37.074141,"pinyin":"guangzong","pinyinDisplay":"guang zong","initials":"gz"},{"id":"130532","parentId":"1305","code":"130532000000","level":"county","name":"平乡","fullName":"平乡县","provinceName":"河北省","prefectureName":"邢台市","path":"河北省 / 邢台市 / 平乡县","longitude":115.024044,"latitude":37.063186,"pinyin":"pingxiang","pinyinDisplay":"ping xiang","initials":"px"},{"id":"130533","parentId":"1305","code":"130533000000","level":"county","name":"威县","fullName":"威县","provinceName":"河北省","prefectureName":"邢台市","path":"河北省 / 邢台市 / 威县","longitude":115.26086,"latitude":36.974719,"pinyin":"weixian","pinyinDisplay":"wei xian","initials":"wx"},{"id":"130534","parentId":"1305","code":"130534000000","level":"county","name":"清河","fullName":"清河县","provinceName":"河北省","prefectureName":"邢台市","path":"河北省 / 邢台市 / 清河县","longitude":115.65928,"latitude":37.044709,"pinyin":"qinghe","pinyinDisplay":"qing he","initials":"qh"},{"id":"130535","parentId":"1305","code":"130535000000","level":"county","name":"临西","fullName":"临西县","provinceName":"河北省","prefectureName":"邢台市","path":"河北省 / 邢台市 / 临西县","longitude":115.495311,"latitude":36.870946,"pinyin":"linxi","pinyinDisplay":"lin xi","initials":"lx"},{"id":"130581","parentId":"1305","code":"130581000000","level":"county","name":"南宫","fullName":"南宫市","provinceName":"河北省","prefectureName":"邢台市","path":"河北省 / 邢台市 / 南宫市","longitude":115.402416,"latitude":37.35805,"pinyin":"nangong","pinyinDisplay":"nan gong","initials":"ng"},{"id":"130582","parentId":"1305","code":"130582000000","level":"county","name":"沙河","fullName":"沙河市","provinceName":"河北省","prefectureName":"邢台市","path":"河北省 / 邢台市 / 沙河市","longitude":114.497134,"latitude":36.855218,"pinyin":"shahe","pinyinDisplay":"sha he","initials":"sh"},{"id":"1306","parentId":"13","code":"130600000000","level":"prefecture","name":"保定","fullName":"保定市","provinceName":"河北省","prefectureName":"保定市","path":"河北省 / 保定市","longitude":115.458204,"latitude":38.873575,"pinyin":"baoding","pinyinDisplay":"bao ding","initials":"bd"},{"id":"130602","parentId":"1306","code":"130602000000","level":"county","name":"竞秀","fullName":"竞秀区","provinceName":"河北省","prefectureName":"保定市","path":"河北省 / 保定市 / 竞秀区","longitude":115.452333,"latitude":38.876402,"pinyin":"jingxiu","pinyinDisplay":"jing xiu","initials":"jx"},{"id":"130606","parentId":"1306","code":"130606000000","level":"county","name":"莲池","fullName":"莲池区","provinceName":"河北省","prefectureName":"保定市","path":"河北省 / 保定市 / 莲池区","longitude":115.490955,"latitude":38.882714,"pinyin":"lianchi","pinyinDisplay":"lian chi","initials":"lc"},{"id":"130607","parentId":"1306","code":"130607000000","level":"county","name":"满城","fullName":"满城区","provinceName":"河北省","prefectureName":"保定市","path":"河北省 / 保定市 / 满城区","longitude":115.315941,"latitude":38.948809,"pinyin":"mancheng","pinyinDisplay":"man cheng","initials":"mc"},{"id":"130608","parentId":"1306","code":"130608000000","level":"county","name":"清苑","fullName":"清苑区","provinceName":"河北省","prefectureName":"保定市","path":"河北省 / 保定市 / 清苑区","longitude":115.483667,"latitude":38.764497,"pinyin":"qingyuan","pinyinDisplay":"qing yuan","initials":"qy"},{"id":"130609","parentId":"1306","code":"130609000000","level":"county","name":"徐水","fullName":"徐水区","provinceName":"河北省","prefectureName":"保定市","path":"河北省 / 保定市 / 徐水区","longitude":115.649762,"latitude":39.018016,"pinyin":"xushui","pinyinDisplay":"xu shui","initials":"xs"},{"id":"130623","parentId":"1306","code":"130623000000","level":"county","name":"涞水","fullName":"涞水县","provinceName":"河北省","prefectureName":"保定市","path":"河北省 / 保定市 / 涞水县","longitude":115.707487,"latitude":39.39323,"pinyin":"laishui","pinyinDisplay":"lai shui","initials":"ls"},{"id":"130624","parentId":"1306","code":"130624000000","level":"county","name":"阜平","fullName":"阜平县","provinceName":"河北省","prefectureName":"保定市","path":"河北省 / 保定市 / 阜平县","longitude":114.188748,"latitude":38.848411,"pinyin":"fuping","pinyinDisplay":"fu ping","initials":"fp"},{"id":"130626","parentId":"1306","code":"130626000000","level":"county","name":"定兴","fullName":"定兴县","provinceName":"河北省","prefectureName":"保定市","path":"河北省 / 保定市 / 定兴县","longitude":115.802116,"latitude":39.262239,"pinyin":"dingxing","pinyinDisplay":"ding xing","initials":"dx"},{"id":"130627","parentId":"1306","code":"130627000000","level":"county","name":"唐县","fullName":"唐县","provinceName":"河北省","prefectureName":"保定市","path":"河北省 / 保定市 / 唐县","longitude":114.976921,"latitude":38.747804,"pinyin":"tangxian","pinyinDisplay":"tang xian","initials":"tx"},{"id":"130628","parentId":"1306","code":"130628000000","level":"county","name":"高阳","fullName":"高阳县","provinceName":"河北省","prefectureName":"保定市","path":"河北省 / 保定市 / 高阳县","longitude":115.773084,"latitude":38.700141,"pinyin":"gaoyang","pinyinDisplay":"gao yang","initials":"gy"},{"id":"130629","parentId":"1306","code":"130629000000","level":"county","name":"容城","fullName":"容城县","provinceName":"河北省","prefectureName":"保定市","path":"河北省 / 保定市 / 容城县","longitude":115.855742,"latitude":39.042565,"pinyin":"rongcheng","pinyinDisplay":"rong cheng","initials":"rc"},{"id":"130630","parentId":"1306","code":"130630000000","level":"county","name":"涞源","fullName":"涞源县","provinceName":"河北省","prefectureName":"保定市","path":"河北省 / 保定市 / 涞源县","longitude":114.68833,"latitude":39.359613,"pinyin":"laiyuan","pinyinDisplay":"lai yuan","initials":"ly"},{"id":"130631","parentId":"1306","code":"130631000000","level":"county","name":"望都","fullName":"望都县","provinceName":"河北省","prefectureName":"保定市","path":"河北省 / 保定市 / 望都县","longitude":115.149117,"latitude":38.695391,"pinyin":"wangdu","pinyinDisplay":"wang du","initials":"wd"},{"id":"130632","parentId":"1306","code":"130632000000","level":"county","name":"安新","fullName":"安新县","provinceName":"河北省","prefectureName":"保定市","path":"河北省 / 保定市 / 安新县","longitude":115.929851,"latitude":38.935416,"pinyin":"anxin","pinyinDisplay":"an xin","initials":"ax"},{"id":"130633","parentId":"1306","code":"130633000000","level":"county","name":"易县","fullName":"易县","provinceName":"河北省","prefectureName":"保定市","path":"河北省 / 保定市 / 易县","longitude":115.491233,"latitude":39.349137,"pinyin":"yixian","pinyinDisplay":"yi xian","initials":"yx"},{"id":"130634","parentId":"1306","code":"130634000000","level":"county","name":"曲阳","fullName":"曲阳县","provinceName":"河北省","prefectureName":"保定市","path":"河北省 / 保定市 / 曲阳县","longitude":114.734415,"latitude":38.613744,"pinyin":"quyang","pinyinDisplay":"qu yang","initials":"qy"},{"id":"130635","parentId":"1306","code":"130635000000","level":"county","name":"蠡县","fullName":"蠡县","provinceName":"河北省","prefectureName":"保定市","path":"河北省 / 保定市 / 蠡县","longitude":115.577806,"latitude":38.48759,"pinyin":"lixian","pinyinDisplay":"li xian","initials":"lx"},{"id":"130636","parentId":"1306","code":"130636000000","level":"county","name":"顺平","fullName":"顺平县","provinceName":"河北省","prefectureName":"保定市","path":"河北省 / 保定市 / 顺平县","longitude":115.128775,"latitude":38.837058,"pinyin":"shunping","pinyinDisplay":"shun ping","initials":"sp"},{"id":"130637","parentId":"1306","code":"130637000000","level":"county","name":"博野","fullName":"博野县","provinceName":"河北省","prefectureName":"保定市","path":"河北省 / 保定市 / 博野县","longitude":115.458027,"latitude":38.457299,"pinyin":"boye","pinyinDisplay":"bo ye","initials":"by"},{"id":"130638","parentId":"1306","code":"130638000000","level":"county","name":"雄县","fullName":"雄县","provinceName":"河北省","prefectureName":"保定市","path":"河北省 / 保定市 / 雄县","longitude":116.102422,"latitude":38.993758,"pinyin":"xiongxian","pinyinDisplay":"xiong xian","initials":"xx"},{"id":"130681","parentId":"1306","code":"130681000000","level":"county","name":"涿州","fullName":"涿州市","provinceName":"河北省","prefectureName":"保定市","path":"河北省 / 保定市 / 涿州市","longitude":115.968447,"latitude":39.484618,"pinyin":"zhuozhou","pinyinDisplay":"zhuo zhou","initials":"zz"},{"id":"130682","parentId":"1306","code":"130682000000","level":"county","name":"定州","fullName":"定州市","provinceName":"河北省","prefectureName":"保定市","path":"河北省 / 保定市 / 定州市","longitude":114.984272,"latitude":38.516128,"pinyin":"dingzhou","pinyinDisplay":"ding zhou","initials":"dz"},{"id":"130683","parentId":"1306","code":"130683000000","level":"county","name":"安国","fullName":"安国市","provinceName":"河北省","prefectureName":"保定市","path":"河北省 / 保定市 / 安国市","longitude":115.320836,"latitude":38.418252,"pinyin":"anguo","pinyinDisplay":"an guo","initials":"ag"},{"id":"130684","parentId":"1306","code":"130684000000","level":"county","name":"高碑店","fullName":"高碑店市","provinceName":"河北省","prefectureName":"保定市","path":"河北省 / 保定市 / 高碑店市","longitude":115.86771,"latitude":39.326329,"pinyin":"gaobeidian","pinyinDisplay":"gao bei dian","initials":"gbd"},{"id":"1307","parentId":"13","code":"130700000000","level":"prefecture","name":"张家口","fullName":"张家口市","provinceName":"河北省","prefectureName":"张家口市","path":"河北省 / 张家口市","longitude":114.879785,"latitude":40.767647,"pinyin":"zhangjiakou","pinyinDisplay":"zhang jia kou","initials":"zjk"},{"id":"130702","parentId":"1307","code":"130702000000","level":"county","name":"桥东","fullName":"桥东区","provinceName":"河北省","prefectureName":"张家口市","path":"河北省 / 张家口市 / 桥东区","longitude":114.888006,"latitude":40.787177,"pinyin":"qiaodong","pinyinDisplay":"qiao dong","initials":"qd"},{"id":"130703","parentId":"1307","code":"130703000000","level":"county","name":"桥西","fullName":"桥西区","provinceName":"河北省","prefectureName":"张家口市","path":"河北省 / 张家口市 / 桥西区","longitude":114.862468,"latitude":40.818213,"pinyin":"qiaoxi","pinyinDisplay":"qiao xi","initials":"qx"},{"id":"130705","parentId":"1307","code":"130705000000","level":"county","name":"宣化","fullName":"宣化区","provinceName":"河北省","prefectureName":"张家口市","path":"河北省 / 张家口市 / 宣化区","longitude":115.092901,"latitude":40.607901,"pinyin":"xuanhua","pinyinDisplay":"xuan hua","initials":"xh"},{"id":"130706","parentId":"1307","code":"130706000000","level":"county","name":"下花园","fullName":"下花园区","provinceName":"河北省","prefectureName":"张家口市","path":"河北省 / 张家口市 / 下花园区","longitude":115.280703,"latitude":40.501299,"pinyin":"xiahuayuan","pinyinDisplay":"xia hua yuan","initials":"xhy"},{"id":"130708","parentId":"1307","code":"130708000000","level":"county","name":"万全","fullName":"万全区","provinceName":"河北省","prefectureName":"张家口市","path":"河北省 / 张家口市 / 万全区","longitude":114.734256,"latitude":40.76592,"pinyin":"wanquan","pinyinDisplay":"wan quan","initials":"wq"},{"id":"130709","parentId":"1307","code":"130709000000","level":"county","name":"崇礼","fullName":"崇礼区","provinceName":"河北省","prefectureName":"张家口市","path":"河北省 / 张家口市 / 崇礼区","longitude":115.275866,"latitude":40.973081,"pinyin":"chongli","pinyinDisplay":"chong li","initials":"cl"},{"id":"130722","parentId":"1307","code":"130722000000","level":"county","name":"张北","fullName":"张北县","provinceName":"河北省","prefectureName":"张家口市","path":"河北省 / 张家口市 / 张北县","longitude":114.713567,"latitude":41.157275,"pinyin":"zhangbei","pinyinDisplay":"zhang bei","initials":"zb"},{"id":"130723","parentId":"1307","code":"130723000000","level":"county","name":"康保","fullName":"康保县","provinceName":"河北省","prefectureName":"张家口市","path":"河北省 / 张家口市 / 康保县","longitude":114.59394,"latitude":41.851154,"pinyin":"kangbao","pinyinDisplay":"kang bao","initials":"kb"},{"id":"130724","parentId":"1307","code":"130724000000","level":"county","name":"沽源","fullName":"沽源县","provinceName":"河北省","prefectureName":"张家口市","path":"河北省 / 张家口市 / 沽源县","longitude":115.682126,"latitude":41.668498,"pinyin":"guyuan","pinyinDisplay":"gu yuan","initials":"gy"},{"id":"130725","parentId":"1307","code":"130725000000","level":"county","name":"尚义","fullName":"尚义县","provinceName":"河北省","prefectureName":"张家口市","path":"河北省 / 张家口市 / 尚义县","longitude":113.962102,"latitude":41.074982,"pinyin":"shangyi","pinyinDisplay":"shang yi","initials":"sy"},{"id":"130726","parentId":"1307","code":"130726000000","level":"county","name":"蔚县","fullName":"蔚县","provinceName":"河北省","prefectureName":"张家口市","path":"河北省 / 张家口市 / 蔚县","longitude":114.583147,"latitude":39.839163,"pinyin":"yuxian","pinyinDisplay":"yu xian","initials":"yx"},{"id":"130727","parentId":"1307","code":"130727000000","level":"county","name":"阳原","fullName":"阳原县","provinceName":"河北省","prefectureName":"张家口市","path":"河北省 / 张家口市 / 阳原县","longitude":114.143596,"latitude":40.102992,"pinyin":"yangyuan","pinyinDisplay":"yang yuan","initials":"yy"},{"id":"130728","parentId":"1307","code":"130728000000","level":"county","name":"怀安","fullName":"怀安县","provinceName":"河北省","prefectureName":"张家口市","path":"河北省 / 张家口市 / 怀安县","longitude":114.379844,"latitude":40.673707,"pinyin":"huaian","pinyinDisplay":"huai an","initials":"ha"},{"id":"130730","parentId":"1307","code":"130730000000","level":"county","name":"怀来","fullName":"怀来县","provinceName":"河北省","prefectureName":"张家口市","path":"河北省 / 张家口市 / 怀来县","longitude":115.51156,"latitude":40.414405,"pinyin":"huailai","pinyinDisplay":"huai lai","initials":"hl"},{"id":"130731","parentId":"1307","code":"130731000000","level":"county","name":"涿鹿","fullName":"涿鹿县","provinceName":"河北省","prefectureName":"张家口市","path":"河北省 / 张家口市 / 涿鹿县","longitude":115.190409,"latitude":40.381378,"pinyin":"zhuolu","pinyinDisplay":"zhuo lu","initials":"zl"},{"id":"130732","parentId":"1307","code":"130732000000","level":"county","name":"赤城","fullName":"赤城县","provinceName":"河北省","prefectureName":"张家口市","path":"河北省 / 张家口市 / 赤城县","longitude":115.825048,"latitude":40.911846,"pinyin":"chicheng","pinyinDisplay":"chi cheng","initials":"cc"},{"id":"1308","parentId":"13","code":"130800000000","level":"prefecture","name":"承德","fullName":"承德市","provinceName":"河北省","prefectureName":"承德市","path":"河北省 / 承德市","longitude":117.956422,"latitude":40.951361,"pinyin":"chengde","pinyinDisplay":"cheng de","initials":"cd"},{"id":"130802","parentId":"1308","code":"130802000000","level":"county","name":"双桥","fullName":"双桥区","provinceName":"河北省","prefectureName":"承德市","path":"河北省 / 承德市 / 双桥区","longitude":117.936837,"latitude":40.973122,"pinyin":"shuangqiao","pinyinDisplay":"shuang qiao","initials":"sq"},{"id":"130803","parentId":"1308","code":"130803000000","level":"county","name":"双滦","fullName":"双滦区","provinceName":"河北省","prefectureName":"承德市","path":"河北省 / 承德市 / 双滦区","longitude":117.793104,"latitude":40.957781,"pinyin":"shuangluan","pinyinDisplay":"shuang luan","initials":"sl"},{"id":"130804","parentId":"1308","code":"130804000000","level":"county","name":"鹰手营子矿区","fullName":"鹰手营子矿区","provinceName":"河北省","prefectureName":"承德市","path":"河北省 / 承德市 / 鹰手营子矿区","longitude":117.652971,"latitude":40.54516,"pinyin":"yingshouyingzikuangqu","pinyinDisplay":"ying shou ying zi kuang qu","initials":"ysyzkq"},{"id":"130821","parentId":"1308","code":"130821000000","level":"county","name":"承德县","fullName":"承德县","provinceName":"河北省","prefectureName":"承德市","path":"河北省 / 承德市 / 承德县","longitude":118.167719,"latitude":40.766453,"pinyin":"chengdexian","pinyinDisplay":"cheng de xian","initials":"cdx"},{"id":"130822","parentId":"1308","code":"130822000000","level":"county","name":"兴隆","fullName":"兴隆县","provinceName":"河北省","prefectureName":"承德市","path":"河北省 / 承德市 / 兴隆县","longitude":117.494046,"latitude":40.41604,"pinyin":"xinglong","pinyinDisplay":"xing long","initials":"xl"},{"id":"130824","parentId":"1308","code":"130824000000","level":"county","name":"滦平","fullName":"滦平县","provinceName":"河北省","prefectureName":"承德市","path":"河北省 / 承德市 / 滦平县","longitude":117.32597,"latitude":40.93988,"pinyin":"luanping","pinyinDisplay":"luan ping","initials":"lp"},{"id":"130825","parentId":"1308","code":"130825000000","level":"county","name":"隆化","fullName":"隆化县","provinceName":"河北省","prefectureName":"承德市","path":"河北省 / 承德市 / 隆化县","longitude":117.732418,"latitude":41.312439,"pinyin":"longhua","pinyinDisplay":"long hua","initials":"lh"},{"id":"130826","parentId":"1308","code":"130826000000","level":"county","name":"丰宁","fullName":"丰宁满族自治县","provinceName":"河北省","prefectureName":"承德市","path":"河北省 / 承德市 / 丰宁满族自治县","longitude":116.639777,"latitude":41.208227,"pinyin":"fengning","pinyinDisplay":"feng ning","initials":"fn"},{"id":"130827","parentId":"1308","code":"130827000000","level":"county","name":"宽城","fullName":"宽城满族自治县","provinceName":"河北省","prefectureName":"承德市","path":"河北省 / 承德市 / 宽城满族自治县","longitude":118.479226,"latitude":40.609851,"pinyin":"kuancheng","pinyinDisplay":"kuan cheng","initials":"kc"},{"id":"130828","parentId":"1308","code":"130828000000","level":"county","name":"围场","fullName":"围场满族蒙古族自治县","provinceName":"河北省","prefectureName":"承德市","path":"河北省 / 承德市 / 围场满族蒙古族自治县","longitude":117.752649,"latitude":41.936254,"pinyin":"weichang","pinyinDisplay":"wei chang","initials":"wc"},{"id":"130881","parentId":"1308","code":"130881000000","level":"county","name":"平泉","fullName":"平泉市","provinceName":"河北省","prefectureName":"承德市","path":"河北省 / 承德市 / 平泉市","longitude":118.695861,"latitude":41.016763,"pinyin":"pingquan","pinyinDisplay":"ping quan","initials":"pq"},{"id":"1309","parentId":"13","code":"130900000000","level":"prefecture","name":"沧州","fullName":"沧州市","provinceName":"河北省","prefectureName":"沧州市","path":"河北省 / 沧州市","longitude":116.832925,"latitude":38.304117,"pinyin":"cangzhou","pinyinDisplay":"cang zhou","initials":"cz"},{"id":"130902","parentId":"1309","code":"130902000000","level":"county","name":"新华","fullName":"新华区","provinceName":"河北省","prefectureName":"沧州市","path":"河北省 / 沧州市 / 新华区","longitude":116.86056,"latitude":38.313581,"pinyin":"xinhua","pinyinDisplay":"xin hua","initials":"xh"},{"id":"130903","parentId":"1309","code":"130903000000","level":"county","name":"运河","fullName":"运河区","provinceName":"河北省","prefectureName":"沧州市","path":"河北省 / 沧州市 / 运河区","longitude":116.837184,"latitude":38.282904,"pinyin":"yunhe","pinyinDisplay":"yun he","initials":"yh"},{"id":"130921","parentId":"1309","code":"130921000000","level":"county","name":"沧县","fullName":"沧县","provinceName":"河北省","prefectureName":"沧州市","path":"河北省 / 沧州市 / 沧县","longitude":117.001424,"latitude":38.219149,"pinyin":"cangxian","pinyinDisplay":"cang xian","initials":"cx"},{"id":"130922","parentId":"1309","code":"130922000000","level":"county","name":"青县","fullName":"青县","provinceName":"河北省","prefectureName":"沧州市","path":"河北省 / 沧州市 / 青县","longitude":116.798252,"latitude":38.583006,"pinyin":"qingxian","pinyinDisplay":"qing xian","initials":"qx"},{"id":"130923","parentId":"1309","code":"130923000000","level":"county","name":"东光","fullName":"东光县","provinceName":"河北省","prefectureName":"沧州市","path":"河北省 / 沧州市 / 东光县","longitude":116.531499,"latitude":37.888212,"pinyin":"dongguang","pinyinDisplay":"dong guang","initials":"dg"},{"id":"130924","parentId":"1309","code":"130924000000","level":"county","name":"海兴","fullName":"海兴县","provinceName":"河北省","prefectureName":"沧州市","path":"河北省 / 沧州市 / 海兴县","longitude":117.491313,"latitude":38.142594,"pinyin":"haixing","pinyinDisplay":"hai xing","initials":"hx"},{"id":"130925","parentId":"1309","code":"130925000000","level":"county","name":"盐山","fullName":"盐山县","provinceName":"河北省","prefectureName":"沧州市","path":"河北省 / 沧州市 / 盐山县","longitude":117.22454,"latitude":38.05735,"pinyin":"yanshan","pinyinDisplay":"yan shan","initials":"ys"},{"id":"130926","parentId":"1309","code":"130926000000","level":"county","name":"肃宁","fullName":"肃宁县","provinceName":"河北省","prefectureName":"沧州市","path":"河北省 / 沧州市 / 肃宁县","longitude":115.823713,"latitude":38.422489,"pinyin":"suning","pinyinDisplay":"su ning","initials":"sn"},{"id":"130927","parentId":"1309","code":"130927000000","level":"county","name":"南皮","fullName":"南皮县","provinceName":"河北省","prefectureName":"沧州市","path":"河北省 / 沧州市 / 南皮县","longitude":116.702802,"latitude":38.038081,"pinyin":"nanpi","pinyinDisplay":"nan pi","initials":"np"},{"id":"130928","parentId":"1309","code":"130928000000","level":"county","name":"吴桥","fullName":"吴桥县","provinceName":"河北省","prefectureName":"沧州市","path":"河北省 / 沧州市 / 吴桥县","longitude":116.385592,"latitude":37.627287,"pinyin":"wuqiao","pinyinDisplay":"wu qiao","initials":"wq"},{"id":"130929","parentId":"1309","code":"130929000000","level":"county","name":"献县","fullName":"献县","provinceName":"河北省","prefectureName":"沧州市","path":"河北省 / 沧州市 / 献县","longitude":116.146037,"latitude":38.179579,"pinyin":"xianxian","pinyinDisplay":"xian xian","initials":"xx"},{"id":"130930","parentId":"1309","code":"130930000000","level":"county","name":"孟村","fullName":"孟村回族自治县","provinceName":"河北省","prefectureName":"沧州市","path":"河北省 / 沧州市 / 孟村回族自治县","longitude":117.098217,"latitude":38.052538,"pinyin":"mengcun","pinyinDisplay":"meng cun","initials":"mc"},{"id":"130981","parentId":"1309","code":"130981000000","level":"county","name":"泊头","fullName":"泊头市","provinceName":"河北省","prefectureName":"沧州市","path":"河北省 / 沧州市 / 泊头市","longitude":116.572743,"latitude":38.08374,"pinyin":"botou","pinyinDisplay":"bo tou","initials":"bt"},{"id":"130982","parentId":"1309","code":"130982000000","level":"county","name":"任丘","fullName":"任丘市","provinceName":"河北省","prefectureName":"沧州市","path":"河北省 / 沧州市 / 任丘市","longitude":116.078239,"latitude":38.684424,"pinyin":"renqiu","pinyinDisplay":"ren qiu","initials":"rq"},{"id":"130983","parentId":"1309","code":"130983000000","level":"county","name":"黄骅","fullName":"黄骅市","provinceName":"河北省","prefectureName":"沧州市","path":"河北省 / 沧州市 / 黄骅市","longitude":117.323706,"latitude":38.371486,"pinyin":"huanghua","pinyinDisplay":"huang hua","initials":"hh"},{"id":"130984","parentId":"1309","code":"130984000000","level":"county","name":"河间","fullName":"河间市","provinceName":"河北省","prefectureName":"沧州市","path":"河北省 / 沧州市 / 河间市","longitude":116.09322,"latitude":38.445811,"pinyin":"hejian","pinyinDisplay":"he jian","initials":"hj"},{"id":"1310","parentId":"13","code":"131000000000","level":"prefecture","name":"廊坊","fullName":"廊坊市","provinceName":"河北省","prefectureName":"廊坊市","path":"河北省 / 廊坊市","longitude":116.677631,"latitude":39.537203,"pinyin":"langfang","pinyinDisplay":"lang fang","initials":"lf"},{"id":"131002","parentId":"1310","code":"131002000000","level":"county","name":"安次","fullName":"安次区","provinceName":"河北省","prefectureName":"廊坊市","path":"河北省 / 廊坊市 / 安次区","longitude":116.688603,"latitude":39.501459,"pinyin":"anci","pinyinDisplay":"an ci","initials":"ac"},{"id":"131003","parentId":"1310","code":"131003000000","level":"county","name":"广阳","fullName":"广阳区","provinceName":"河北省","prefectureName":"廊坊市","path":"河北省 / 廊坊市 / 广阳区","longitude":116.704685,"latitude":39.522289,"pinyin":"guangyang","pinyinDisplay":"guang yang","initials":"gy"},{"id":"131022","parentId":"1310","code":"131022000000","level":"county","name":"固安","fullName":"固安县","provinceName":"河北省","prefectureName":"廊坊市","path":"河北省 / 廊坊市 / 固安县","longitude":116.292683,"latitude":39.437625,"pinyin":"guan","pinyinDisplay":"gu an","initials":"ga"},{"id":"131023","parentId":"1310","code":"131023000000","level":"county","name":"永清","fullName":"永清县","provinceName":"河北省","prefectureName":"廊坊市","path":"河北省 / 廊坊市 / 永清县","longitude":116.500167,"latitude":39.329913,"pinyin":"yongqing","pinyinDisplay":"yong qing","initials":"yq"},{"id":"131024","parentId":"1310","code":"131024000000","level":"county","name":"香河","fullName":"香河县","provinceName":"河北省","prefectureName":"廊坊市","path":"河北省 / 廊坊市 / 香河县","longitude":116.999834,"latitude":39.762531,"pinyin":"xianghe","pinyinDisplay":"xiang he","initials":"xh"},{"id":"131025","parentId":"1310","code":"131025000000","level":"county","name":"大城","fullName":"大城县","provinceName":"河北省","prefectureName":"廊坊市","path":"河北省 / 廊坊市 / 大城县","longitude":116.648183,"latitude":38.704618,"pinyin":"dacheng","pinyinDisplay":"da cheng","initials":"dc"},{"id":"131026","parentId":"1310","code":"131026000000","level":"county","name":"文安","fullName":"文安县","provinceName":"河北省","prefectureName":"廊坊市","path":"河北省 / 廊坊市 / 文安县","longitude":116.4516,"latitude":38.872247,"pinyin":"wenan","pinyinDisplay":"wen an","initials":"wa"},{"id":"131028","parentId":"1310","code":"131028000000","level":"county","name":"大厂","fullName":"大厂回族自治县","provinceName":"河北省","prefectureName":"廊坊市","path":"河北省 / 廊坊市 / 大厂回族自治县","longitude":116.983431,"latitude":39.885369,"pinyin":"dachang","pinyinDisplay":"da chang","initials":"dc"},{"id":"131081","parentId":"1310","code":"131081000000","level":"county","name":"霸州","fullName":"霸州市","provinceName":"河北省","prefectureName":"廊坊市","path":"河北省 / 廊坊市 / 霸州市","longitude":116.385345,"latitude":39.124084,"pinyin":"bazhou","pinyinDisplay":"ba zhou","initials":"bz"},{"id":"131082","parentId":"1310","code":"131082000000","level":"county","name":"三河","fullName":"三河市","provinceName":"河北省","prefectureName":"廊坊市","path":"河北省 / 廊坊市 / 三河市","longitude":117.071752,"latitude":39.981519,"pinyin":"sanhe","pinyinDisplay":"san he","initials":"sh"},{"id":"1311","parentId":"13","code":"131100000000","level":"prefecture","name":"衡水","fullName":"衡水市","provinceName":"河北省","prefectureName":"衡水市","path":"河北省 / 衡水市","longitude":115.6631,"latitude":37.738728,"pinyin":"hengshui","pinyinDisplay":"heng shui","initials":"hs"},{"id":"131102","parentId":"1311","code":"131102000000","level":"county","name":"桃城","fullName":"桃城区","provinceName":"河北省","prefectureName":"衡水市","path":"河北省 / 衡水市 / 桃城区","longitude":115.669309,"latitude":37.7345,"pinyin":"taocheng","pinyinDisplay":"tao cheng","initials":"tc"},{"id":"131103","parentId":"1311","code":"131103000000","level":"county","name":"冀州","fullName":"冀州区","provinceName":"河北省","prefectureName":"衡水市","path":"河北省 / 衡水市 / 冀州区","longitude":115.5736,"latitude":37.550369,"pinyin":"jizhou","pinyinDisplay":"ji zhou","initials":"jz"},{"id":"131121","parentId":"1311","code":"131121000000","level":"county","name":"枣强","fullName":"枣强县","provinceName":"河北省","prefectureName":"衡水市","path":"河北省 / 衡水市 / 枣强县","longitude":115.718413,"latitude":37.513502,"pinyin":"zaoqiang","pinyinDisplay":"zao qiang","initials":"zq"},{"id":"131122","parentId":"1311","code":"131122000000","level":"county","name":"武邑","fullName":"武邑县","provinceName":"河北省","prefectureName":"衡水市","path":"河北省 / 衡水市 / 武邑县","longitude":115.881795,"latitude":37.801479,"pinyin":"wuyi","pinyinDisplay":"wu yi","initials":"wy"},{"id":"131123","parentId":"1311","code":"131123000000","level":"county","name":"武强","fullName":"武强县","provinceName":"河北省","prefectureName":"衡水市","path":"河北省 / 衡水市 / 武强县","longitude":115.976273,"latitude":38.040806,"pinyin":"wuqiang","pinyinDisplay":"wu qiang","initials":"wq"},{"id":"131124","parentId":"1311","code":"131124000000","level":"county","name":"饶阳","fullName":"饶阳县","provinceName":"河北省","prefectureName":"衡水市","path":"河北省 / 衡水市 / 饶阳县","longitude":115.719861,"latitude":38.234669,"pinyin":"raoyang","pinyinDisplay":"rao yang","initials":"ry"},{"id":"131125","parentId":"1311","code":"131125000000","level":"county","name":"安平","fullName":"安平县","provinceName":"河北省","prefectureName":"衡水市","path":"河北省 / 衡水市 / 安平县","longitude":115.512883,"latitude":38.234174,"pinyin":"anping","pinyinDisplay":"an ping","initials":"ap"},{"id":"131126","parentId":"1311","code":"131126000000","level":"county","name":"故城","fullName":"故城县","provinceName":"河北省","prefectureName":"衡水市","path":"河北省 / 衡水市 / 故城县","longitude":115.960157,"latitude":37.347291,"pinyin":"gucheng","pinyinDisplay":"gu cheng","initials":"gc"},{"id":"131127","parentId":"1311","code":"131127000000","level":"county","name":"景县","fullName":"景县","provinceName":"河北省","prefectureName":"衡水市","path":"河北省 / 衡水市 / 景县","longitude":116.264786,"latitude":37.692069,"pinyin":"jingxian","pinyinDisplay":"jing xian","initials":"jx"},{"id":"131128","parentId":"1311","code":"131128000000","level":"county","name":"阜城","fullName":"阜城县","provinceName":"河北省","prefectureName":"衡水市","path":"河北省 / 衡水市 / 阜城县","longitude":116.169504,"latitude":37.862162,"pinyin":"fucheng","pinyinDisplay":"fu cheng","initials":"fc"},{"id":"131182","parentId":"1311","code":"131182000000","level":"county","name":"深州","fullName":"深州市","provinceName":"河北省","prefectureName":"衡水市","path":"河北省 / 衡水市 / 深州市","longitude":115.553697,"latitude":38.000993,"pinyin":"shenzhou","pinyinDisplay":"shen zhou","initials":"sz"},{"id":"14","parentId":null,"code":"140000000000","level":"province","name":"山西","fullName":"山西省","provinceName":"山西省","prefectureName":null,"path":"山西省","longitude":112.57254,"latitude":37.813458,"pinyin":"shanxi","pinyinDisplay":"shan xi","initials":"sx"},{"id":"1401","parentId":"14","code":"140100000000","level":"prefecture","name":"太原","fullName":"太原市","provinceName":"山西省","prefectureName":"太原市","path":"山西省 / 太原市","longitude":112.543359,"latitude":37.869927,"pinyin":"taiyuan","pinyinDisplay":"tai yuan","initials":"ty"},{"id":"140105","parentId":"1401","code":"140105000000","level":"county","name":"小店","fullName":"小店区","provinceName":"山西省","prefectureName":"太原市","path":"山西省 / 太原市 / 小店区","longitude":112.559275,"latitude":37.736352,"pinyin":"xiaodian","pinyinDisplay":"xiao dian","initials":"xd"},{"id":"140106","parentId":"1401","code":"140106000000","level":"county","name":"迎泽","fullName":"迎泽区","provinceName":"山西省","prefectureName":"太原市","path":"山西省 / 太原市 / 迎泽区","longitude":112.557106,"latitude":37.862808,"pinyin":"yingze","pinyinDisplay":"ying ze","initials":"yz"},{"id":"140107","parentId":"1401","code":"140107000000","level":"county","name":"杏花岭","fullName":"杏花岭区","provinceName":"山西省","prefectureName":"太原市","path":"山西省 / 太原市 / 杏花岭区","longitude":112.564152,"latitude":37.893756,"pinyin":"xinghualing","pinyinDisplay":"xing hua ling","initials":"xhl"},{"id":"140108","parentId":"1401","code":"140108000000","level":"county","name":"尖草坪","fullName":"尖草坪区","provinceName":"山西省","prefectureName":"太原市","path":"山西省 / 太原市 / 尖草坪区","longitude":112.479621,"latitude":37.939368,"pinyin":"jiancaoping","pinyinDisplay":"jian cao ping","initials":"jcp"},{"id":"140109","parentId":"1401","code":"140109000000","level":"county","name":"万柏林","fullName":"万柏林区","provinceName":"山西省","prefectureName":"太原市","path":"山西省 / 太原市 / 万柏林区","longitude":112.509236,"latitude":37.859126,"pinyin":"wanbailin","pinyinDisplay":"wan bai lin","initials":"wbl"},{"id":"140110","parentId":"1401","code":"140110000000","level":"county","name":"晋源","fullName":"晋源区","provinceName":"山西省","prefectureName":"太原市","path":"山西省 / 太原市 / 晋源区","longitude":112.471346,"latitude":37.71478,"pinyin":"jinyuan","pinyinDisplay":"jin yuan","initials":"jy"},{"id":"140121","parentId":"1401","code":"140121000000","level":"county","name":"清徐","fullName":"清徐县","provinceName":"山西省","prefectureName":"太原市","path":"山西省 / 太原市 / 清徐县","longitude":112.352751,"latitude":37.607931,"pinyin":"qingxu","pinyinDisplay":"qing xu","initials":"qx"},{"id":"140122","parentId":"1401","code":"140122000000","level":"county","name":"阳曲","fullName":"阳曲县","provinceName":"山西省","prefectureName":"太原市","path":"山西省 / 太原市 / 阳曲县","longitude":112.666523,"latitude":38.057982,"pinyin":"yangqu","pinyinDisplay":"yang qu","initials":"yq"},{"id":"140123","parentId":"1401","code":"140123000000","level":"county","name":"娄烦","fullName":"娄烦县","provinceName":"山西省","prefectureName":"太原市","path":"山西省 / 太原市 / 娄烦县","longitude":111.790635,"latitude":38.067007,"pinyin":"loufan","pinyinDisplay":"lou fan","initials":"lf"},{"id":"140181","parentId":"1401","code":"140181000000","level":"county","name":"古交","fullName":"古交市","provinceName":"山西省","prefectureName":"太原市","path":"山西省 / 太原市 / 古交市","longitude":112.168436,"latitude":37.906683,"pinyin":"gujiao","pinyinDisplay":"gu jiao","initials":"gj"},{"id":"1402","parentId":"14","code":"140200000000","level":"prefecture","name":"大同","fullName":"大同市","provinceName":"山西省","prefectureName":"大同市","path":"山西省 / 大同市","longitude":113.359578,"latitude":40.095791,"pinyin":"datong","pinyinDisplay":"da tong","initials":"dt"},{"id":"140212","parentId":"1402","code":"140212000000","level":"county","name":"新荣","fullName":"新荣区","provinceName":"山西省","prefectureName":"大同市","path":"山西省 / 大同市 / 新荣区","longitude":113.132476,"latitude":40.25503,"pinyin":"xinrong","pinyinDisplay":"xin rong","initials":"xr"},{"id":"140213","parentId":"1402","code":"140213000000","level":"county","name":"平城","fullName":"平城区","provinceName":"山西省","prefectureName":"大同市","path":"山西省 / 大同市 / 平城区","longitude":113.293162,"latitude":40.075791,"pinyin":"pingcheng","pinyinDisplay":"ping cheng","initials":"pc"},{"id":"140214","parentId":"1402","code":"140214000000","level":"county","name":"云冈","fullName":"云冈区","provinceName":"山西省","prefectureName":"大同市","path":"山西省 / 大同市 / 云冈区","longitude":113.142936,"latitude":40.004561,"pinyin":"yungang","pinyinDisplay":"yun gang","initials":"yg"},{"id":"140215","parentId":"1402","code":"140215000000","level":"county","name":"云州","fullName":"云州区","provinceName":"山西省","prefectureName":"大同市","path":"山西省 / 大同市 / 云州区","longitude":113.605839,"latitude":40.039175,"pinyin":"yunzhou","pinyinDisplay":"yun zhou","initials":"yz"},{"id":"140221","parentId":"1402","code":"140221000000","level":"county","name":"阳高","fullName":"阳高县","provinceName":"山西省","prefectureName":"大同市","path":"山西省 / 大同市 / 阳高县","longitude":113.742088,"latitude":40.359846,"pinyin":"yanggao","pinyinDisplay":"yang gao","initials":"yg"},{"id":"140222","parentId":"1402","code":"140222000000","level":"county","name":"天镇","fullName":"天镇县","provinceName":"山西省","prefectureName":"大同市","path":"山西省 / 大同市 / 天镇县","longitude":114.084043,"latitude":40.419445,"pinyin":"tianzhen","pinyinDisplay":"tian zhen","initials":"tz"},{"id":"140223","parentId":"1402","code":"140223000000","level":"county","name":"广灵","fullName":"广灵县","provinceName":"山西省","prefectureName":"大同市","path":"山西省 / 大同市 / 广灵县","longitude":114.276323,"latitude":39.759223,"pinyin":"guangling","pinyinDisplay":"guang ling","initials":"gl"},{"id":"140224","parentId":"1402","code":"140224000000","level":"county","name":"灵丘","fullName":"灵丘县","provinceName":"山西省","prefectureName":"大同市","path":"山西省 / 大同市 / 灵丘县","longitude":114.228098,"latitude":39.441368,"pinyin":"lingqiu","pinyinDisplay":"ling qiu","initials":"lq"},{"id":"140225","parentId":"1402","code":"140225000000","level":"county","name":"浑源","fullName":"浑源县","provinceName":"山西省","prefectureName":"大同市","path":"山西省 / 大同市 / 浑源县","longitude":113.685099,"latitude":39.705401,"pinyin":"hunyuan","pinyinDisplay":"hun yuan","initials":"hy"},{"id":"140226","parentId":"1402","code":"140226000000","level":"county","name":"左云","fullName":"左云县","provinceName":"山西省","prefectureName":"大同市","path":"山西省 / 大同市 / 左云县","longitude":112.696291,"latitude":40.012342,"pinyin":"zuoyun","pinyinDisplay":"zuo yun","initials":"zy"},{"id":"1403","parentId":"14","code":"140300000000","level":"prefecture","name":"阳泉","fullName":"阳泉市","provinceName":"山西省","prefectureName":"阳泉市","path":"山西省 / 阳泉市","longitude":113.574024,"latitude":37.856591,"pinyin":"yangquan","pinyinDisplay":"yang quan","initials":"yq"},{"id":"140302","parentId":"1403","code":"140302000000","level":"county","name":"城区","fullName":"城区","provinceName":"山西省","prefectureName":"阳泉市","path":"山西省 / 阳泉市 / 城区","longitude":113.59431,"latitude":37.846959,"pinyin":"chengqu","pinyinDisplay":"cheng qu","initials":"cq"},{"id":"140303","parentId":"1403","code":"140303000000","level":"county","name":"矿区","fullName":"矿区","provinceName":"山西省","prefectureName":"阳泉市","path":"山西省 / 阳泉市 / 矿区","longitude":113.548824,"latitude":37.86796,"pinyin":"kuangqu","pinyinDisplay":"kuang qu","initials":"kq"},{"id":"140311","parentId":"1403","code":"140311000000","level":"county","name":"郊区","fullName":"郊区","provinceName":"山西省","prefectureName":"阳泉市","path":"山西省 / 阳泉市 / 郊区","longitude":113.5876,"latitude":37.943223,"pinyin":"jiaoqu","pinyinDisplay":"jiao qu","initials":"jq"},{"id":"140321","parentId":"1403","code":"140321000000","level":"county","name":"平定","fullName":"平定县","provinceName":"山西省","prefectureName":"阳泉市","path":"山西省 / 阳泉市 / 平定县","longitude":113.623386,"latitude":37.804461,"pinyin":"pingding","pinyinDisplay":"ping ding","initials":"pd"},{"id":"140322","parentId":"1403","code":"140322000000","level":"county","name":"盂县","fullName":"盂县","provinceName":"山西省","prefectureName":"阳泉市","path":"山西省 / 阳泉市 / 盂县","longitude":113.405348,"latitude":38.085227,"pinyin":"yuxian","pinyinDisplay":"yu xian","initials":"yx"},{"id":"1404","parentId":"14","code":"140400000000","level":"prefecture","name":"长治","fullName":"长治市","provinceName":"山西省","prefectureName":"长治市","path":"山西省 / 长治市","longitude":113.11073,"latitude":36.194976,"pinyin":"changzhi","pinyinDisplay":"chang zhi","initials":"cz"},{"id":"140403","parentId":"1404","code":"140403000000","level":"county","name":"潞州","fullName":"潞州区","provinceName":"山西省","prefectureName":"长治市","path":"山西省 / 长治市 / 潞州区","longitude":113.116064,"latitude":36.203142,"pinyin":"luzhou","pinyinDisplay":"lu zhou","initials":"lz"},{"id":"140404","parentId":"1404","code":"140404000000","level":"county","name":"上党","fullName":"上党区","provinceName":"山西省","prefectureName":"长治市","path":"山西省 / 长治市 / 上党区","longitude":113.044838,"latitude":36.053012,"pinyin":"shangdang","pinyinDisplay":"shang dang","initials":"sd"},{"id":"140405","parentId":"1404","code":"140405000000","level":"county","name":"屯留","fullName":"屯留区","provinceName":"山西省","prefectureName":"长治市","path":"山西省 / 长治市 / 屯留区","longitude":112.886144,"latitude":36.316365,"pinyin":"tunliu","pinyinDisplay":"tun liu","initials":"tl"},{"id":"140406","parentId":"1404","code":"140406000000","level":"county","name":"潞城","fullName":"潞城区","provinceName":"山西省","prefectureName":"长治市","path":"山西省 / 长治市 / 潞城区","longitude":113.2224,"latitude":36.334558,"pinyin":"lucheng","pinyinDisplay":"lu cheng","initials":"lc"},{"id":"140423","parentId":"1404","code":"140423000000","level":"county","name":"襄垣","fullName":"襄垣县","provinceName":"山西省","prefectureName":"长治市","path":"山西省 / 长治市 / 襄垣县","longitude":113.044664,"latitude":36.535381,"pinyin":"xiangyuan","pinyinDisplay":"xiang yuan","initials":"xy"},{"id":"140425","parentId":"1404","code":"140425000000","level":"county","name":"平顺","fullName":"平顺县","provinceName":"山西省","prefectureName":"长治市","path":"山西省 / 长治市 / 平顺县","longitude":113.42919,"latitude":36.200214,"pinyin":"pingshun","pinyinDisplay":"ping shun","initials":"ps"},{"id":"140426","parentId":"1404","code":"140426000000","level":"county","name":"黎城","fullName":"黎城县","provinceName":"山西省","prefectureName":"长治市","path":"山西省 / 长治市 / 黎城县","longitude":113.380289,"latitude":36.501977,"pinyin":"licheng","pinyinDisplay":"li cheng","initials":"lc"},{"id":"140427","parentId":"1404","code":"140427000000","level":"county","name":"壶关","fullName":"壶关县","provinceName":"山西省","prefectureName":"长治市","path":"山西省 / 长治市 / 壶关县","longitude":113.200338,"latitude":36.11564,"pinyin":"huguan","pinyinDisplay":"hu guan","initials":"hg"},{"id":"140428","parentId":"1404","code":"140428000000","level":"county","name":"长子","fullName":"长子县","provinceName":"山西省","prefectureName":"长治市","path":"山西省 / 长治市 / 长子县","longitude":112.871779,"latitude":36.122464,"pinyin":"zhangzi","pinyinDisplay":"zhang zi","initials":"zz"},{"id":"140429","parentId":"1404","code":"140429000000","level":"county","name":"武乡","fullName":"武乡县","provinceName":"山西省","prefectureName":"长治市","path":"山西省 / 长治市 / 武乡县","longitude":112.857723,"latitude":36.837727,"pinyin":"wuxiang","pinyinDisplay":"wu xiang","initials":"wx"},{"id":"140430","parentId":"1404","code":"140430000000","level":"county","name":"沁县","fullName":"沁县","provinceName":"山西省","prefectureName":"长治市","path":"山西省 / 长治市 / 沁县","longitude":112.692864,"latitude":36.755963,"pinyin":"qinxian","pinyinDisplay":"qin xian","initials":"qx"},{"id":"140431","parentId":"1404","code":"140431000000","level":"county","name":"沁源","fullName":"沁源县","provinceName":"山西省","prefectureName":"长治市","path":"山西省 / 长治市 / 沁源县","longitude":112.331284,"latitude":36.499797,"pinyin":"qinyuan","pinyinDisplay":"qin yuan","initials":"qy"},{"id":"1405","parentId":"14","code":"140500000000","level":"prefecture","name":"晋城","fullName":"晋城市","provinceName":"山西省","prefectureName":"晋城市","path":"山西省 / 晋城市","longitude":112.845914,"latitude":35.49173,"pinyin":"jincheng","pinyinDisplay":"jin cheng","initials":"jc"},{"id":"140502","parentId":"1405","code":"140502000000","level":"county","name":"城区","fullName":"城区","provinceName":"山西省","prefectureName":"晋城市","path":"山西省 / 晋城市 / 城区","longitude":112.847345,"latitude":35.502889,"pinyin":"chengqu","pinyinDisplay":"cheng qu","initials":"cq"},{"id":"140521","parentId":"1405","code":"140521000000","level":"county","name":"沁水","fullName":"沁水县","provinceName":"山西省","prefectureName":"晋城市","path":"山西省 / 晋城市 / 沁水县","longitude":112.180411,"latitude":35.690226,"pinyin":"qinshui","pinyinDisplay":"qin shui","initials":"qs"},{"id":"140522","parentId":"1405","code":"140522000000","level":"county","name":"阳城","fullName":"阳城县","provinceName":"山西省","prefectureName":"晋城市","path":"山西省 / 晋城市 / 阳城县","longitude":112.408388,"latitude":35.486382,"pinyin":"yangcheng","pinyinDisplay":"yang cheng","initials":"yc"},{"id":"140524","parentId":"1405","code":"140524000000","level":"county","name":"陵川","fullName":"陵川县","provinceName":"山西省","prefectureName":"晋城市","path":"山西省 / 晋城市 / 陵川县","longitude":113.274304,"latitude":35.775339,"pinyin":"lingchuan","pinyinDisplay":"ling chuan","initials":"lc"},{"id":"140525","parentId":"1405","code":"140525000000","level":"county","name":"泽州","fullName":"泽州县","provinceName":"山西省","prefectureName":"晋城市","path":"山西省 / 晋城市 / 泽州县","longitude":112.947957,"latitude":35.543864,"pinyin":"zezhou","pinyinDisplay":"ze zhou","initials":"zz"},{"id":"140581","parentId":"1405","code":"140581000000","level":"county","name":"高平","fullName":"高平市","provinceName":"山西省","prefectureName":"晋城市","path":"山西省 / 晋城市 / 高平市","longitude":112.917676,"latitude":35.799065,"pinyin":"gaoping","pinyinDisplay":"gao ping","initials":"gp"},{"id":"1406","parentId":"14","code":"140600000000","level":"prefecture","name":"朔州","fullName":"朔州市","provinceName":"山西省","prefectureName":"朔州市","path":"山西省 / 朔州市","longitude":112.42606,"latitude":39.330573,"pinyin":"shuozhou","pinyinDisplay":"shuo zhou","initials":"sz"},{"id":"140602","parentId":"1406","code":"140602000000","level":"county","name":"朔城","fullName":"朔城区","provinceName":"山西省","prefectureName":"朔州市","path":"山西省 / 朔州市 / 朔城区","longitude":112.425225,"latitude":39.319039,"pinyin":"shuocheng","pinyinDisplay":"shuo cheng","initials":"sc"},{"id":"140603","parentId":"1406","code":"140603000000","level":"county","name":"平鲁","fullName":"平鲁区","provinceName":"山西省","prefectureName":"朔州市","path":"山西省 / 朔州市 / 平鲁区","longitude":112.281569,"latitude":39.511126,"pinyin":"pinglu","pinyinDisplay":"ping lu","initials":"pl"},{"id":"140621","parentId":"1406","code":"140621000000","level":"county","name":"山阴","fullName":"山阴县","provinceName":"山西省","prefectureName":"朔州市","path":"山西省 / 朔州市 / 山阴县","longitude":112.809772,"latitude":39.526434,"pinyin":"shanyin","pinyinDisplay":"shan yin","initials":"sy"},{"id":"140622","parentId":"1406","code":"140622000000","level":"county","name":"应县","fullName":"应县","provinceName":"山西省","prefectureName":"朔州市","path":"山西省 / 朔州市 / 应县","longitude":113.184002,"latitude":39.553313,"pinyin":"yingxian","pinyinDisplay":"ying xian","initials":"yx"},{"id":"140623","parentId":"1406","code":"140623000000","level":"county","name":"右玉","fullName":"右玉县","provinceName":"山西省","prefectureName":"朔州市","path":"山西省 / 朔州市 / 右玉县","longitude":112.460081,"latitude":39.98797,"pinyin":"youyu","pinyinDisplay":"you yu","initials":"yy"},{"id":"140681","parentId":"1406","code":"140681000000","level":"county","name":"怀仁","fullName":"怀仁市","provinceName":"山西省","prefectureName":"朔州市","path":"山西省 / 朔州市 / 怀仁市","longitude":113.125959,"latitude":39.819222,"pinyin":"huairen","pinyinDisplay":"huai ren","initials":"hr"},{"id":"1407","parentId":"14","code":"140700000000","level":"prefecture","name":"晋中","fullName":"晋中市","provinceName":"山西省","prefectureName":"晋中市","path":"山西省 / 晋中市","longitude":112.746141,"latitude":37.687325,"pinyin":"jinzhong","pinyinDisplay":"jin zhong","initials":"jz"},{"id":"140702","parentId":"1407","code":"140702000000","level":"county","name":"榆次","fullName":"榆次区","provinceName":"山西省","prefectureName":"晋中市","path":"山西省 / 晋中市 / 榆次区","longitude":112.701125,"latitude":37.69799,"pinyin":"yuci","pinyinDisplay":"yu ci","initials":"yc"},{"id":"140703","parentId":"1407","code":"140703000000","level":"county","name":"太谷","fullName":"太谷区","provinceName":"山西省","prefectureName":"晋中市","path":"山西省 / 晋中市 / 太谷区","longitude":112.545055,"latitude":37.420892,"pinyin":"taigu","pinyinDisplay":"tai gu","initials":"tg"},{"id":"140721","parentId":"1407","code":"140721000000","level":"county","name":"榆社","fullName":"榆社县","provinceName":"山西省","prefectureName":"晋中市","path":"山西省 / 晋中市 / 榆社县","longitude":112.968969,"latitude":37.07082,"pinyin":"yushe","pinyinDisplay":"yu she","initials":"ys"},{"id":"140722","parentId":"1407","code":"140722000000","level":"county","name":"左权","fullName":"左权县","provinceName":"山西省","prefectureName":"晋中市","path":"山西省 / 晋中市 / 左权县","longitude":113.372613,"latitude":37.082095,"pinyin":"zuoquan","pinyinDisplay":"zuo quan","initials":"zq"},{"id":"140723","parentId":"1407","code":"140723000000","level":"county","name":"和顺","fullName":"和顺县","provinceName":"山西省","prefectureName":"晋中市","path":"山西省 / 晋中市 / 和顺县","longitude":113.563938,"latitude":37.329241,"pinyin":"heshun","pinyinDisplay":"he shun","initials":"hs"},{"id":"140724","parentId":"1407","code":"140724000000","level":"county","name":"昔阳","fullName":"昔阳县","provinceName":"山西省","prefectureName":"晋中市","path":"山西省 / 晋中市 / 昔阳县","longitude":113.70066,"latitude":37.611911,"pinyin":"xiyang","pinyinDisplay":"xi yang","initials":"xy"},{"id":"140725","parentId":"1407","code":"140725000000","level":"county","name":"寿阳","fullName":"寿阳县","provinceName":"山西省","prefectureName":"晋中市","path":"山西省 / 晋中市 / 寿阳县","longitude":113.169604,"latitude":37.89444,"pinyin":"shouyang","pinyinDisplay":"shou yang","initials":"sy"},{"id":"140727","parentId":"1407","code":"140727000000","level":"county","name":"祁县","fullName":"祁县","provinceName":"山西省","prefectureName":"晋中市","path":"山西省 / 晋中市 / 祁县","longitude":112.328691,"latitude":37.357708,"pinyin":"qixian","pinyinDisplay":"qi xian","initials":"qx"},{"id":"140728","parentId":"1407","code":"140728000000","level":"county","name":"平遥","fullName":"平遥县","provinceName":"山西省","prefectureName":"晋中市","path":"山西省 / 晋中市 / 平遥县","longitude":112.169314,"latitude":37.189006,"pinyin":"pingyao","pinyinDisplay":"ping yao","initials":"py"},{"id":"140729","parentId":"1407","code":"140729000000","level":"county","name":"灵石","fullName":"灵石县","provinceName":"山西省","prefectureName":"晋中市","path":"山西省 / 晋中市 / 灵石县","longitude":111.772289,"latitude":36.847821,"pinyin":"lingshi","pinyinDisplay":"ling shi","initials":"ls"},{"id":"140781","parentId":"1407","code":"140781000000","level":"county","name":"介休","fullName":"介休市","provinceName":"山西省","prefectureName":"晋中市","path":"山西省 / 晋中市 / 介休市","longitude":111.910243,"latitude":37.027309,"pinyin":"jiexiu","pinyinDisplay":"jie xiu","initials":"jx"},{"id":"1408","parentId":"14","code":"140800000000","level":"prefecture","name":"运城","fullName":"运城市","provinceName":"山西省","prefectureName":"运城市","path":"山西省 / 运城市","longitude":111.001238,"latitude":35.027408,"pinyin":"yuncheng","pinyinDisplay":"yun cheng","initials":"yc"},{"id":"140802","parentId":"1408","code":"140802000000","level":"county","name":"盐湖","fullName":"盐湖区","provinceName":"山西省","prefectureName":"运城市","path":"山西省 / 运城市 / 盐湖区","longitude":110.992365,"latitude":35.016326,"pinyin":"yanhu","pinyinDisplay":"yan hu","initials":"yh"},{"id":"140821","parentId":"1408","code":"140821000000","level":"county","name":"临猗","fullName":"临猗县","provinceName":"山西省","prefectureName":"运城市","path":"山西省 / 运城市 / 临猗县","longitude":110.768988,"latitude":35.145051,"pinyin":"linyi","pinyinDisplay":"lin yi","initials":"ly"},{"id":"140822","parentId":"1408","code":"140822000000","level":"county","name":"万荣","fullName":"万荣县","provinceName":"山西省","prefectureName":"运城市","path":"山西省 / 运城市 / 万荣县","longitude":110.832433,"latitude":35.41629,"pinyin":"wanrong","pinyinDisplay":"wan rong","initials":"wr"},{"id":"140823","parentId":"1408","code":"140823000000","level":"county","name":"闻喜","fullName":"闻喜县","provinceName":"山西省","prefectureName":"运城市","path":"山西省 / 运城市 / 闻喜县","longitude":111.218449,"latitude":35.357067,"pinyin":"wenxi","pinyinDisplay":"wen xi","initials":"wx"},{"id":"140824","parentId":"1408","code":"140824000000","level":"county","name":"稷山","fullName":"稷山县","provinceName":"山西省","prefectureName":"运城市","path":"山西省 / 运城市 / 稷山县","longitude":110.977513,"latitude":35.604805,"pinyin":"jishan","pinyinDisplay":"ji shan","initials":"js"},{"id":"140825","parentId":"1408","code":"140825000000","level":"county","name":"新绛","fullName":"新绛县","provinceName":"山西省","prefectureName":"运城市","path":"山西省 / 运城市 / 新绛县","longitude":111.218704,"latitude":35.616224,"pinyin":"xinjiang","pinyinDisplay":"xin jiang","initials":"xj"},{"id":"140826","parentId":"1408","code":"140826000000","level":"county","name":"绛县","fullName":"绛县","provinceName":"山西省","prefectureName":"运城市","path":"山西省 / 运城市 / 绛县","longitude":111.562811,"latitude":35.492231,"pinyin":"jiangxian","pinyinDisplay":"jiang xian","initials":"jx"},{"id":"140827","parentId":"1408","code":"140827000000","level":"county","name":"垣曲","fullName":"垣曲县","provinceName":"山西省","prefectureName":"运城市","path":"山西省 / 运城市 / 垣曲县","longitude":111.66409,"latitude":35.298855,"pinyin":"yuanqu","pinyinDisplay":"yuan qu","initials":"yq"},{"id":"140828","parentId":"1408","code":"140828000000","level":"county","name":"夏县","fullName":"夏县","provinceName":"山西省","prefectureName":"运城市","path":"山西省 / 运城市 / 夏县","longitude":111.21393,"latitude":35.141346,"pinyin":"xiaxian","pinyinDisplay":"xia xian","initials":"xx"},{"id":"140829","parentId":"1408","code":"140829000000","level":"county","name":"平陆","fullName":"平陆县","provinceName":"山西省","prefectureName":"运城市","path":"山西省 / 运城市 / 平陆县","longitude":111.18795,"latitude":34.830513,"pinyin":"pinglu","pinyinDisplay":"ping lu","initials":"pl"},{"id":"140830","parentId":"1408","code":"140830000000","level":"county","name":"芮城","fullName":"芮城县","provinceName":"山西省","prefectureName":"运城市","path":"山西省 / 运城市 / 芮城县","longitude":110.689013,"latitude":34.695343,"pinyin":"ruicheng","pinyinDisplay":"rui cheng","initials":"rc"},{"id":"140881","parentId":"1408","code":"140881000000","level":"county","name":"永济","fullName":"永济市","provinceName":"山西省","prefectureName":"运城市","path":"山西省 / 运城市 / 永济市","longitude":110.442271,"latitude":34.867306,"pinyin":"yongji","pinyinDisplay":"yong ji","initials":"yj"},{"id":"140882","parentId":"1408","code":"140882000000","level":"county","name":"河津","fullName":"河津市","provinceName":"山西省","prefectureName":"运城市","path":"山西省 / 运城市 / 河津市","longitude":110.706495,"latitude":35.596633,"pinyin":"hejin","pinyinDisplay":"he jin","initials":"hj"},{"id":"1409","parentId":"14","code":"140900000000","level":"prefecture","name":"忻州","fullName":"忻州市","provinceName":"山西省","prefectureName":"忻州市","path":"山西省 / 忻州市","longitude":112.727581,"latitude":38.415377,"pinyin":"xinzhou","pinyinDisplay":"xin zhou","initials":"xz"},{"id":"140902","parentId":"1409","code":"140902000000","level":"county","name":"忻府","fullName":"忻府区","provinceName":"山西省","prefectureName":"忻州市","path":"山西省 / 忻州市 / 忻府区","longitude":112.739781,"latitude":38.402913,"pinyin":"xinfu","pinyinDisplay":"xin fu","initials":"xf"},{"id":"140921","parentId":"1409","code":"140921000000","level":"county","name":"定襄","fullName":"定襄县","provinceName":"山西省","prefectureName":"忻州市","path":"山西省 / 忻州市 / 定襄县","longitude":112.950723,"latitude":38.471248,"pinyin":"dingxiang","pinyinDisplay":"ding xiang","initials":"dx"},{"id":"140922","parentId":"1409","code":"140922000000","level":"county","name":"五台","fullName":"五台县","provinceName":"山西省","prefectureName":"忻州市","path":"山西省 / 忻州市 / 五台县","longitude":113.24864,"latitude":38.727378,"pinyin":"wutai","pinyinDisplay":"wu tai","initials":"wt"},{"id":"140923","parentId":"1409","code":"140923000000","level":"county","name":"代县","fullName":"代县","provinceName":"山西省","prefectureName":"忻州市","path":"山西省 / 忻州市 / 代县","longitude":112.953508,"latitude":39.066083,"pinyin":"daixian","pinyinDisplay":"dai xian","initials":"dx"},{"id":"140924","parentId":"1409","code":"140924000000","level":"county","name":"繁峙","fullName":"繁峙县","provinceName":"山西省","prefectureName":"忻州市","path":"山西省 / 忻州市 / 繁峙县","longitude":113.258619,"latitude":39.187891,"pinyin":"fanshi","pinyinDisplay":"fan shi","initials":"fs"},{"id":"140925","parentId":"1409","code":"140925000000","level":"county","name":"宁武","fullName":"宁武县","provinceName":"山西省","prefectureName":"忻州市","path":"山西省 / 忻州市 / 宁武县","longitude":112.298068,"latitude":39.000641,"pinyin":"ningwu","pinyinDisplay":"ning wu","initials":"nw"},{"id":"140926","parentId":"1409","code":"140926000000","level":"county","name":"静乐","fullName":"静乐县","provinceName":"山西省","prefectureName":"忻州市","path":"山西省 / 忻州市 / 静乐县","longitude":111.933107,"latitude":38.358893,"pinyin":"jingle","pinyinDisplay":"jing le","initials":"jl"},{"id":"140927","parentId":"1409","code":"140927000000","level":"county","name":"神池","fullName":"神池县","provinceName":"山西省","prefectureName":"忻州市","path":"山西省 / 忻州市 / 神池县","longitude":112.204337,"latitude":39.090193,"pinyin":"shenchi","pinyinDisplay":"shen chi","initials":"sc"},{"id":"140928","parentId":"1409","code":"140928000000","level":"county","name":"五寨","fullName":"五寨县","provinceName":"山西省","prefectureName":"忻州市","path":"山西省 / 忻州市 / 五寨县","longitude":111.840308,"latitude":38.910497,"pinyin":"wuzhai","pinyinDisplay":"wu zhai","initials":"wz"},{"id":"140929","parentId":"1409","code":"140929000000","level":"county","name":"岢岚","fullName":"岢岚县","provinceName":"山西省","prefectureName":"忻州市","path":"山西省 / 忻州市 / 岢岚县","longitude":111.566573,"latitude":38.703529,"pinyin":"kelan","pinyinDisplay":"ke lan","initials":"kl"},{"id":"140930","parentId":"1409","code":"140930000000","level":"county","name":"河曲","fullName":"河曲县","provinceName":"山西省","prefectureName":"忻州市","path":"山西省 / 忻州市 / 河曲县","longitude":111.131656,"latitude":39.383374,"pinyin":"hequ","pinyinDisplay":"he qu","initials":"hq"},{"id":"140931","parentId":"1409","code":"140931000000","level":"county","name":"保德","fullName":"保德县","provinceName":"山西省","prefectureName":"忻州市","path":"山西省 / 忻州市 / 保德县","longitude":111.079412,"latitude":39.021643,"pinyin":"baode","pinyinDisplay":"bao de","initials":"bd"},{"id":"140932","parentId":"1409","code":"140932000000","level":"county","name":"偏关","fullName":"偏关县","provinceName":"山西省","prefectureName":"忻州市","path":"山西省 / 忻州市 / 偏关县","longitude":111.502281,"latitude":39.435921,"pinyin":"pianguan","pinyinDisplay":"pian guan","initials":"pg"},{"id":"140981","parentId":"1409","code":"140981000000","level":"county","name":"原平","fullName":"原平市","provinceName":"山西省","prefectureName":"忻州市","path":"山西省 / 忻州市 / 原平市","longitude":112.704454,"latitude":38.730772,"pinyin":"yuanping","pinyinDisplay":"yuan ping","initials":"yp"},{"id":"1410","parentId":"14","code":"141000000000","level":"prefecture","name":"临汾","fullName":"临汾市","provinceName":"山西省","prefectureName":"临汾市","path":"山西省 / 临汾市","longitude":111.513093,"latitude":36.088705,"pinyin":"linfen","pinyinDisplay":"lin fen","initials":"lf"},{"id":"141002","parentId":"1410","code":"141002000000","level":"county","name":"尧都","fullName":"尧都区","provinceName":"山西省","prefectureName":"临汾市","path":"山西省 / 临汾市 / 尧都区","longitude":111.572707,"latitude":36.082707,"pinyin":"yaodu","pinyinDisplay":"yao du","initials":"yd"},{"id":"141021","parentId":"1410","code":"141021000000","level":"county","name":"曲沃","fullName":"曲沃县","provinceName":"山西省","prefectureName":"临汾市","path":"山西省 / 临汾市 / 曲沃县","longitude":111.469476,"latitude":35.642022,"pinyin":"quwo","pinyinDisplay":"qu wo","initials":"qw"},{"id":"141022","parentId":"1410","code":"141022000000","level":"county","name":"翼城","fullName":"翼城县","provinceName":"山西省","prefectureName":"临汾市","path":"山西省 / 临汾市 / 翼城县","longitude":111.712773,"latitude":35.739884,"pinyin":"yicheng","pinyinDisplay":"yi cheng","initials":"yc"},{"id":"141023","parentId":"1410","code":"141023000000","level":"county","name":"襄汾","fullName":"襄汾县","provinceName":"山西省","prefectureName":"临汾市","path":"山西省 / 临汾市 / 襄汾县","longitude":111.435313,"latitude":35.876262,"pinyin":"xiangfen","pinyinDisplay":"xiang fen","initials":"xf"},{"id":"141024","parentId":"1410","code":"141024000000","level":"county","name":"洪洞","fullName":"洪洞县","provinceName":"山西省","prefectureName":"临汾市","path":"山西省 / 临汾市 / 洪洞县","longitude":111.669469,"latitude":36.254198,"pinyin":"hongtong","pinyinDisplay":"hong tong","initials":"ht"},{"id":"141025","parentId":"1410","code":"141025000000","level":"county","name":"古县","fullName":"古县","provinceName":"山西省","prefectureName":"临汾市","path":"山西省 / 临汾市 / 古县","longitude":111.914183,"latitude":36.26696,"pinyin":"guxian","pinyinDisplay":"gu xian","initials":"gx"},{"id":"141026","parentId":"1410","code":"141026000000","level":"county","name":"安泽","fullName":"安泽县","provinceName":"山西省","prefectureName":"临汾市","path":"山西省 / 临汾市 / 安泽县","longitude":112.243968,"latitude":36.14796,"pinyin":"anze","pinyinDisplay":"an ze","initials":"az"},{"id":"141027","parentId":"1410","code":"141027000000","level":"county","name":"浮山","fullName":"浮山县","provinceName":"山西省","prefectureName":"临汾市","path":"山西省 / 临汾市 / 浮山县","longitude":111.842725,"latitude":35.968344,"pinyin":"fushan","pinyinDisplay":"fu shan","initials":"fs"},{"id":"141028","parentId":"1410","code":"141028000000","level":"county","name":"吉县","fullName":"吉县","provinceName":"山西省","prefectureName":"临汾市","path":"山西省 / 临汾市 / 吉县","longitude":110.675016,"latitude":36.096992,"pinyin":"jixian","pinyinDisplay":"ji xian","initials":"jx"},{"id":"141029","parentId":"1410","code":"141029000000","level":"county","name":"乡宁","fullName":"乡宁县","provinceName":"山西省","prefectureName":"临汾市","path":"山西省 / 临汾市 / 乡宁县","longitude":110.841017,"latitude":35.971069,"pinyin":"xiangning","pinyinDisplay":"xiang ning","initials":"xn"},{"id":"141030","parentId":"1410","code":"141030000000","level":"county","name":"大宁","fullName":"大宁县","provinceName":"山西省","prefectureName":"临汾市","path":"山西省 / 临汾市 / 大宁县","longitude":110.747224,"latitude":36.465094,"pinyin":"daning","pinyinDisplay":"da ning","initials":"dn"},{"id":"141031","parentId":"1410","code":"141031000000","level":"county","name":"隰县","fullName":"隰县","provinceName":"山西省","prefectureName":"临汾市","path":"山西省 / 临汾市 / 隰县","longitude":110.935049,"latitude":36.693338,"pinyin":"xixian","pinyinDisplay":"xi xian","initials":"xx"},{"id":"141032","parentId":"1410","code":"141032000000","level":"county","name":"永和","fullName":"永和县","provinceName":"山西省","prefectureName":"临汾市","path":"山西省 / 临汾市 / 永和县","longitude":110.626559,"latitude":36.75949,"pinyin":"yonghe","pinyinDisplay":"yong he","initials":"yh"},{"id":"141033","parentId":"1410","code":"141033000000","level":"county","name":"蒲县","fullName":"蒲县","provinceName":"山西省","prefectureName":"临汾市","path":"山西省 / 临汾市 / 蒲县","longitude":111.090213,"latitude":36.411628,"pinyin":"puxian","pinyinDisplay":"pu xian","initials":"px"},{"id":"141034","parentId":"1410","code":"141034000000","level":"county","name":"汾西","fullName":"汾西县","provinceName":"山西省","prefectureName":"临汾市","path":"山西省 / 临汾市 / 汾西县","longitude":111.557824,"latitude":36.652846,"pinyin":"fenxi","pinyinDisplay":"fen xi","initials":"fx"},{"id":"141081","parentId":"1410","code":"141081000000","level":"county","name":"侯马","fullName":"侯马市","provinceName":"山西省","prefectureName":"临汾市","path":"山西省 / 临汾市 / 侯马市","longitude":111.365639,"latitude":35.619163,"pinyin":"houma","pinyinDisplay":"hou ma","initials":"hm"},{"id":"141082","parentId":"1410","code":"141082000000","level":"county","name":"霍州","fullName":"霍州市","provinceName":"山西省","prefectureName":"临汾市","path":"山西省 / 临汾市 / 霍州市","longitude":111.748721,"latitude":36.568944,"pinyin":"huozhou","pinyinDisplay":"huo zhou","initials":"hz"},{"id":"1411","parentId":"14","code":"141100000000","level":"prefecture","name":"吕梁","fullName":"吕梁市","provinceName":"山西省","prefectureName":"吕梁市","path":"山西省 / 吕梁市","longitude":111.138178,"latitude":37.518219,"pinyin":"lvliang","pinyinDisplay":"lv liang","initials":"ll"},{"id":"141102","parentId":"1411","code":"141102000000","level":"county","name":"离石","fullName":"离石区","provinceName":"山西省","prefectureName":"吕梁市","path":"山西省 / 吕梁市 / 离石区","longitude":111.143969,"latitude":37.51703,"pinyin":"lishi","pinyinDisplay":"li shi","initials":"ls"},{"id":"141121","parentId":"1411","code":"141121000000","level":"county","name":"文水","fullName":"文水县","provinceName":"山西省","prefectureName":"吕梁市","path":"山西省 / 吕梁市 / 文水县","longitude":112.0223,"latitude":37.437385,"pinyin":"wenshui","pinyinDisplay":"wen shui","initials":"ws"},{"id":"141122","parentId":"1411","code":"141122000000","level":"county","name":"交城","fullName":"交城县","provinceName":"山西省","prefectureName":"吕梁市","path":"山西省 / 吕梁市 / 交城县","longitude":112.149253,"latitude":37.550906,"pinyin":"jiaocheng","pinyinDisplay":"jiao cheng","initials":"jc"},{"id":"141123","parentId":"1411","code":"141123000000","level":"county","name":"兴县","fullName":"兴县","provinceName":"山西省","prefectureName":"吕梁市","path":"山西省 / 吕梁市 / 兴县","longitude":111.121,"latitude":38.461096,"pinyin":"xingxian","pinyinDisplay":"xing xian","initials":"xx"},{"id":"141124","parentId":"1411","code":"141124000000","level":"county","name":"临县","fullName":"临县","provinceName":"山西省","prefectureName":"吕梁市","path":"山西省 / 吕梁市 / 临县","longitude":110.986659,"latitude":37.950421,"pinyin":"linxian","pinyinDisplay":"lin xian","initials":"lx"},{"id":"141125","parentId":"1411","code":"141125000000","level":"county","name":"柳林","fullName":"柳林县","provinceName":"山西省","prefectureName":"吕梁市","path":"山西省 / 吕梁市 / 柳林县","longitude":110.883302,"latitude":37.429392,"pinyin":"liulin","pinyinDisplay":"liu lin","initials":"ll"},{"id":"141126","parentId":"1411","code":"141126000000","level":"county","name":"石楼","fullName":"石楼县","provinceName":"山西省","prefectureName":"吕梁市","path":"山西省 / 吕梁市 / 石楼县","longitude":110.829025,"latitude":36.9982,"pinyin":"shilou","pinyinDisplay":"shi lou","initials":"sl"},{"id":"141127","parentId":"1411","code":"141127000000","level":"county","name":"岚县","fullName":"岚县","provinceName":"山西省","prefectureName":"吕梁市","path":"山西省 / 吕梁市 / 岚县","longitude":111.665693,"latitude":38.279116,"pinyin":"lanxian","pinyinDisplay":"lan xian","initials":"lx"},{"id":"141128","parentId":"1411","code":"141128000000","level":"county","name":"方山","fullName":"方山县","provinceName":"山西省","prefectureName":"吕梁市","path":"山西省 / 吕梁市 / 方山县","longitude":111.237993,"latitude":37.894391,"pinyin":"fangshan","pinyinDisplay":"fang shan","initials":"fs"},{"id":"141129","parentId":"1411","code":"141129000000","level":"county","name":"中阳","fullName":"中阳县","provinceName":"山西省","prefectureName":"吕梁市","path":"山西省 / 吕梁市 / 中阳县","longitude":111.172543,"latitude":37.357149,"pinyin":"zhongyang","pinyinDisplay":"zhong yang","initials":"zy"},{"id":"141130","parentId":"1411","code":"141130000000","level":"county","name":"交口","fullName":"交口县","provinceName":"山西省","prefectureName":"吕梁市","path":"山西省 / 吕梁市 / 交口县","longitude":111.174989,"latitude":36.981766,"pinyin":"jiaokou","pinyinDisplay":"jiao kou","initials":"jk"},{"id":"141181","parentId":"1411","code":"141181000000","level":"county","name":"孝义","fullName":"孝义市","provinceName":"山西省","prefectureName":"吕梁市","path":"山西省 / 吕梁市 / 孝义市","longitude":111.772498,"latitude":37.14558,"pinyin":"xiaoyi","pinyinDisplay":"xiao yi","initials":"xy"},{"id":"141182","parentId":"1411","code":"141182000000","level":"county","name":"汾阳","fullName":"汾阳市","provinceName":"山西省","prefectureName":"吕梁市","path":"山西省 / 吕梁市 / 汾阳市","longitude":111.764374,"latitude":37.260948,"pinyin":"fenyang","pinyinDisplay":"fen yang","initials":"fy"},{"id":"15","parentId":null,"code":"150000000000","level":"province","name":"内蒙古","fullName":"内蒙古自治区","provinceName":"内蒙古自治区","prefectureName":null,"path":"内蒙古自治区","longitude":111.758316,"latitude":40.816809,"pinyin":"neimenggu","pinyinDisplay":"nei meng gu","initials":"nmg"},{"id":"1501","parentId":"15","code":"150100000000","level":"prefecture","name":"呼和浩特","fullName":"呼和浩特市","provinceName":"内蒙古自治区","prefectureName":"呼和浩特市","path":"内蒙古自治区 / 呼和浩特市","longitude":111.741896,"latitude":40.84068,"pinyin":"huhehaote","pinyinDisplay":"hu he hao te","initials":"hhht"},{"id":"150102","parentId":"1501","code":"150102000000","level":"county","name":"新城","fullName":"新城区","provinceName":"内蒙古自治区","prefectureName":"呼和浩特市","path":"内蒙古自治区 / 呼和浩特市 / 新城区","longitude":111.658554,"latitude":40.856919,"pinyin":"xincheng","pinyinDisplay":"xin cheng","initials":"xc"},{"id":"150103","parentId":"1501","code":"150103000000","level":"county","name":"回民","fullName":"回民区","provinceName":"内蒙古自治区","prefectureName":"呼和浩特市","path":"内蒙古自治区 / 呼和浩特市 / 回民区","longitude":111.616815,"latitude":40.80766,"pinyin":"huimin","pinyinDisplay":"hui min","initials":"hm"},{"id":"150104","parentId":"1501","code":"150104000000","level":"county","name":"玉泉","fullName":"玉泉区","provinceName":"内蒙古自治区","prefectureName":"呼和浩特市","path":"内蒙古自治区 / 呼和浩特市 / 玉泉区","longitude":111.667377,"latitude":40.751768,"pinyin":"yuquan","pinyinDisplay":"yu quan","initials":"yq"},{"id":"150105","parentId":"1501","code":"150105000000","level":"county","name":"赛罕","fullName":"赛罕区","provinceName":"内蒙古自治区","prefectureName":"呼和浩特市","path":"内蒙古自治区 / 呼和浩特市 / 赛罕区","longitude":111.694314,"latitude":40.791143,"pinyin":"saihan","pinyinDisplay":"sai han","initials":"sh"},{"id":"150121","parentId":"1501","code":"150121000000","level":"county","name":"土默特左旗","fullName":"土默特左旗","provinceName":"内蒙古自治区","prefectureName":"呼和浩特市","path":"内蒙古自治区 / 呼和浩特市 / 土默特左旗","longitude":111.156998,"latitude":40.727589,"pinyin":"tumotezuoqi","pinyinDisplay":"tu mo te zuo qi","initials":"tmtzq"},{"id":"150122","parentId":"1501","code":"150122000000","level":"county","name":"托克托","fullName":"托克托县","provinceName":"内蒙古自治区","prefectureName":"呼和浩特市","path":"内蒙古自治区 / 呼和浩特市 / 托克托县","longitude":111.18725,"latitude":40.276516,"pinyin":"tuoketuo","pinyinDisplay":"tuo ke tuo","initials":"tkt"},{"id":"150123","parentId":"1501","code":"150123000000","level":"county","name":"和林格尔","fullName":"和林格尔县","provinceName":"内蒙古自治区","prefectureName":"呼和浩特市","path":"内蒙古自治区 / 呼和浩特市 / 和林格尔县","longitude":111.814947,"latitude":40.378134,"pinyin":"helingeer","pinyinDisplay":"he lin ge er","initials":"hlge"},{"id":"150124","parentId":"1501","code":"150124000000","level":"county","name":"清水河","fullName":"清水河县","provinceName":"内蒙古自治区","prefectureName":"呼和浩特市","path":"内蒙古自治区 / 呼和浩特市 / 清水河县","longitude":111.640748,"latitude":39.920251,"pinyin":"qingshuihe","pinyinDisplay":"qing shui he","initials":"qsh"},{"id":"150125","parentId":"1501","code":"150125000000","level":"county","name":"武川","fullName":"武川县","provinceName":"内蒙古自治区","prefectureName":"呼和浩特市","path":"内蒙古自治区 / 呼和浩特市 / 武川县","longitude":111.444188,"latitude":41.094727,"pinyin":"wuchuan","pinyinDisplay":"wu chuan","initials":"wc"},{"id":"1502","parentId":"15","code":"150200000000","level":"prefecture","name":"包头","fullName":"包头市","provinceName":"内蒙古自治区","prefectureName":"包头市","path":"内蒙古自治区 / 包头市","longitude":109.947464,"latitude":40.62021,"pinyin":"baotou","pinyinDisplay":"bao tou","initials":"bt"},{"id":"150202","parentId":"1502","code":"150202000000","level":"county","name":"东河","fullName":"东河区","provinceName":"内蒙古自治区","prefectureName":"包头市","path":"内蒙古自治区 / 包头市 / 东河区","longitude":110.038001,"latitude":40.574918,"pinyin":"donghe","pinyinDisplay":"dong he","initials":"dh"},{"id":"150203","parentId":"1502","code":"150203000000","level":"county","name":"昆都仑","fullName":"昆都仑区","provinceName":"内蒙古自治区","prefectureName":"包头市","path":"内蒙古自治区 / 包头市 / 昆都仑区","longitude":109.834545,"latitude":40.656926,"pinyin":"kundulun","pinyinDisplay":"kun du lun","initials":"kdl"},{"id":"150204","parentId":"1502","code":"150204000000","level":"county","name":"青山","fullName":"青山区","provinceName":"内蒙古自治区","prefectureName":"包头市","path":"内蒙古自治区 / 包头市 / 青山区","longitude":109.896543,"latitude":40.643008,"pinyin":"qingshan","pinyinDisplay":"qing shan","initials":"qs"},